PLACE_NAME,LATITUDE,LONGITUDE
일또,33.5032142110811,126.541978052225
제주포차,33.4987157431778,126.529497589671
성태주식회사,33.483749527838,126.48460872255
큰길,33.2858547058086,126.365475527046
카페송키,33.5151413051746,126.520191797349
쪼개쪼개조개구이,33.50256480522,126.546564830384
민스펍,33.4834166533424,126.478100810855
셰프앤서서아이스크림,33.2514431331821,126.50332471421
카페블루탐,33.5311806021232,126.619637673671
게슈탈트커피제주,33.4879521040367,126.708135763003
제주도감주식회사,33.4818625809975,126.509422537784
첨밀밀양고기,33.3247509656521,126.832483087205
한이장식당,33.4994349553674,126.656665366448
제주스,33.5128617760813,126.526909466541
튀메기,33.5097728416156,126.50456104373
이것이국밥이다서귀포점,33.2547541295246,126.558325686477
두갓,33.4646864696473,126.449291982654
탐라요정신제주점,33.4870613093985,126.490859642544
자매정식,33.5012867354537,126.522126898326
세화어머니손맛,33.525758723314,126.854456402964
올레시장에갓더라면,33.247135975229,126.560842737915
관심사,33.5112512670626,126.524578484809
이레해물,33.4354236903002,126.265969849938
프랭크버거제주표선점,33.3269182237792,126.832159738355
피자탑신제주점,33.4842836468458,126.482664969453
해녀세자매,33.4139962279196,126.260654636467
달자카페,33.4836590731949,126.379775593624
제주칼국수장수상회,33.2532177,126.5609945
본도시락제주시청점,33.5021808352692,126.533073061657
굽네치킨화북삼양점,33.5195380318945,126.565518457884
바로덮밥엔바로파스타서귀포점,33.2470256836738,126.569006885076
세븐바,33.4868879214632,126.431430395098
아라중화요리,33.4749133312103,126.540320783822
오늘와인한잔제주시청점,33.4994180548973,126.528280653588
계절식탁시청점,33.4989627825217,126.529617103529
정말맛있는식당,33.5146174598081,126.539159762749
삼이사,33.2469420478654,126.562740199934
가회식당,33.2797286480495,126.718755747551
러스틱앤모어,33.5238019933835,126.856709048205
포차또랑,33.4993360789459,126.529460658085
일구사삼서귀포명동로점,33.2476241757692,126.565196017278
공회당,33.493381746806,126.899833673049
네네치킨안덕점,33.2598839469038,126.360634839243
올래국수서귀포점,33.2470353452377,126.561428156277
초이당,33.2801877974828,126.731203239677
마마칼국수,33.492215354544,126.493258344827
덕제주담다,33.4857801342791,126.427005290467
모메든식당모슬포점,33.2115822529423,126.2559368218
야시장라운지,33.2498283408323,126.562635795372
유명반점,33.2524553540986,126.473699720927
퍼드림식당,33.2545552487849,126.571290574353
은희네해장국중문점,33.2510478970234,126.43167589419
놈놈놈막창과17청춘,33.5000143579851,126.528585951709
화전민촌,33.4510089603789,126.91425370947
최강닭발,33.2570806749725,126.573692111017
흑돼지참숯구이,33.4880492123186,126.48957342114
주식회사하이드어웨이제주애월해안로지점,33.4665194915869,126.333756654884
프랭크버거시청점,33.4981408476051,126.52962951219
먹자,33.4922879090689,126.479977710503
신창해물라면와랑식탁,33.3432296501376,126.17601755132
오른발왼발서귀포점,33.2470777794459,126.564497918753
케렌시아,33.2494965523719,126.61915816269
네네치킨대정점,33.2185793812559,126.251511294924
미풍해장국아라점,33.4746127545227,126.542738164296
에이바우트커피아라초점,33.4764282385213,126.544754472281
신시가지굽네치킨,33.2529964512628,126.510944782485
반올림피자샵,33.2504898081635,126.564494623322
쌍교숯불갈비제주애월점,33.4856467451667,126.391164591329
미풍해장국코스모스점,33.4855055908244,126.496947971811
페리카나한림점,33.4143275696906,126.264888902265
이디야커피연동점,33.4896909582161,126.490327226225
김명자굴국밥성산점,33.4637616387871,126.934055427589
콜로세움,33.4804552611799,126.501688024466
군산식당,33.5030225325824,126.520111130444
기영이숯불두마리치킨제주이도점,33.4891725026668,126.532819219947
쪽갈비야사랑한닭,33.5167729193151,126.579462652476
투썸플레이스제주모슬포점,33.2166683267121,126.252142300582
유월,33.5122621047131,126.527352076855
비비큐영어교육도시점,33.2915471724251,126.284144532404
레이크백제주홀덤펍,33.488012406258,126.491015046708
피자탑성산점,33.4600697275086,126.930266051563
갑순이네,33.2517741035058,126.422796732023
슈퍼보틀,33.4894528571608,126.490987574401
차화술,33.5099236720909,126.532849051006
문희,33.4923128332711,126.544635962123
산방흑돼지순대영어교육도시점,33.2797294191673,126.276757340352
춘부네식당,33.3317876985783,126.798034293428
퍼틴제주,33.4908607757669,126.498883033499
옛날아우내순대외도점,33.4924161785088,126.432588143822
빵집이야기,33.5092832567999,126.536469499524
투다리파워점,33.5147721352544,126.574402788412
스페샬한라점,33.4862581886499,126.474088556515
삼춘네칼국수,33.2867854362612,126.328492074524
오늘무지개시청점,33.497754403481,126.530241763893
마라힐링,33.2229836907279,126.258711994962
삿뽀로우동집별관,33.2493503649128,126.562475820762
털보스협재밀,33.3978584613703,126.242941320064
맨도롱국수집,33.2485220474328,126.559592129192
유화당,33.2451507939094,126.563900361174
아노야2호점,33.253173422779,126.50435863523
베지근,33.4888565439422,126.482605715273
진아구제주점,33.4765351905332,126.480275714278
전철우해장국,33.4818444755498,126.502887580253
순곱이네일도점,33.5025935546634,126.542905763079
동네마당,33.4855248587172,126.495943012342
도마소리쿠킹스튜디오,33.4861829004125,126.415370836994
배고프면,33.5572238164807,126.802793256399
강촌숯불닭갈비도남점,33.4989640064441,126.525257339538
푸드드림,33.5193725374538,126.576779325699
살롱드라방,33.4577975230226,126.348940287264
구공족발,33.4873910238518,126.42964839148
낮갈치밤돼지,33.4716935500783,126.365343822407
오태식해바라기치킨서귀포점,33.2508382448315,126.562709314689
고기대박집우방,33.482410833791,126.482982958177
멍텅구리24시,33.4972812808831,126.526295615115
고려다방,33.2492122779411,126.566271952508
신성,33.4919579963462,126.49916875305
빨간맛집세화점,33.5231155581459,126.856279169601
곰탕제작소,33.2874500351288,126.302739081357
광양국수,33.5019323091933,126.531126734762
배스킨라빈스중문점,33.2519616786022,126.424068938066
비에이치씨제주화북점,33.5195501801087,126.574183378615
복음이네김밥만두,33.2502360455395,126.51147663127
고죽면칼국수제주외도점,33.4871046634112,126.431921887396
달빛주막,33.4823891619816,126.473360509762
제주크랩앤전복,33.4859928957441,126.538413623475
풍경채,33.4942890630656,126.459660403041
도어스,33.4987109026405,126.53076508755
라이징앤레스토랑,33.253289009643,126.508515551705
신화,33.4877183711787,126.491228307673
교촌치킨건입점,33.5115337180938,126.538788322384
서울빈대떡,33.5025277969522,126.542408696994
외도다해네,33.4882832016134,126.431151309132
라토커피제주,33.4987069795521,126.528165059384
소담,33.4866003926779,126.497058494176
다모아미래컨벤션센터,33.5066025072013,126.514494643999
흑백돈,33.5396446050882,126.671944541497
미친제주면소,33.517497823076,126.520526346921
시애틀의밤,33.4878964656915,126.475065666845
떡마을,33.4966940486961,126.537965245433
애월전분공장,33.4783648243983,126.370237305999
더슬로우,33.558010812289,126.794583908935
알리바바,33.4887604081278,126.489578287332
시선밥상,33.5173326166249,126.621561917231
황제갈매기,33.5012138664886,126.531827748642
제주황금콩밭,33.5393050369686,126.826961894177
석주돈가,33.4989338081852,126.522069124876
인스,33.4811118994095,126.491677178214
단또,33.4975230586204,126.530385491705
우경해장국,33.4921267634805,126.53729082238
델문도제주도립미술관점,33.4526211302787,126.489570481684
오또도넛올레서귀점,33.2438524712863,126.565118121656
알엠시드,33.4980915772398,126.525692014394
카페귤한가,33.3883339171089,126.262787808952
산호,33.4887633690368,126.488175799532
달빛제주,33.4838604781762,126.394431167134
청년다방제주삼화지구점,33.5170894990965,126.577114644529
스마일식당,33.5123106418651,126.525709051631
오늘의바다,33.2417231137662,126.518568277462
챰이슬,33.2216324374404,126.252322758992
무지개식당,33.4997420918399,126.510454780799
마이프렌,33.4964203414216,126.521997062878
탁탁,33.4997124207473,126.533398935555
호야네꼬마김밥,33.4880906260288,126.491906486424
섬집,33.4981355180488,126.525276927614
비자림꿩메밀국수,33.499215428798,126.542041081993
이강돈까스앤송이반점,33.2527744791686,126.556871814516
군족강정점,33.2527799426808,126.503700465728
모헨,33.2410890012735,126.516941273369
클로피,33.2368283288129,126.51381130171
오부자갈비탕,33.4798445258028,126.5536168895
제주돔베마씸,33.4895168867897,126.430453732918
일공공샤브제주연동지점,33.4815186927303,126.490446317
애월연어서귀포점,33.2552567098762,126.557593528469
돼지몰이촌,33.5127295362483,126.531541971736
주식회사티아이,33.4780978833322,126.542471435436
큰물,33.4879979347673,126.434479507791
받거니주거니,33.2214314645346,126.251048057007
오시리,33.5187489493487,126.569492326618
제주노량진회센타,33.5175155788935,126.521107594855
네이처캔버스,33.2831466353571,126.630774495732
리유니온,33.4975230586204,126.530385491705
연남물갈비제주노형점,33.4837679231568,126.480786204145
판포미인,33.3652629660753,126.198064245352
충청도식당,33.2509728349935,126.560349992607
산방산그때그집직영점,33.2472997426804,126.331994293201
도연식당,33.5045239037459,126.541014189875
홍익돈까스제주점,33.4785219313998,126.544535122728
드링콩,33.3856296126064,126.224763407767
스터딩키친열공부엌,33.4832729561392,126.500733346085
연숙식당,33.5024039630649,126.528639936425
외도골목대장,33.4868999271248,126.432377611384
순정삼계탕,33.5038853089303,126.467953125773
하양한,33.5399554952812,126.831175714631
평화가든,33.4839283286713,126.491048188892
춤추는생오리,33.499033377995,126.528147146541
육장갈비삼화점,33.5173064500679,126.587984906886
헬로,33.516088062129,126.506151195483
오는곳세화,33.5275588442793,126.855601264677
금촌댁,33.4160460953239,126.26521017402
홍가네집밥,33.4514543815183,126.911593507321
산도롱맨도롱,33.496858106776,126.910243015026
고가네,33.2513270221507,126.427250184911
춘천명동닭갈비삼화점,33.514784917941,126.575500589027
외도이모네,33.4871018935237,126.432104392488
달림식당,33.4422807870193,126.882240305988
아랑조을국수,33.4754857182699,126.54551852023
페리카나양념통닭효돈분점,33.2634269387152,126.617364750109
남문숯불바베큐중문점,33.2439158332898,126.387781255224
연,33.2523733668899,126.512146159496
다트바불스,33.5000593831882,126.528737552625
투썸플레이스용두암점,33.5166153076594,126.504051567738
청년다방연동점,33.4920592184947,126.488064514794
보성정육식당,33.5029735090251,126.528050542232
동문닭집,33.22183342293,126.254669533293
탁이국수,33.4885273134515,126.489242004001
미미쿡제주이도점,33.4943290591752,126.544952536566
뭉치푸줏간,33.4491571954424,126.915383016409
남원생오리,33.2832124455137,126.716762372245
본디국수,33.4954326044556,126.532334824227
한촌설렁탕제주영어교육도시점,33.2797294191673,126.276757340352
용담상회,33.5187308221385,126.489368534666
플랏포커피,33.4869660229611,126.48284969309
한라당,33.2498322199378,126.563765939814
피자탑영어교육도시점,33.2780829524044,126.273595909124
대양회초밥,33.3250008095857,126.843477222148
옛고을흑돼지구이,33.3078061675394,126.809557089756
네네치킨일도점,33.5019946683166,126.542062498366
더루케테호텔구내식당,33.2413802271591,126.563016928498
애월돼지,33.4662503293207,126.317655317166
효설농탕,33.2528587278417,126.43389247325
원준이네,33.2456554425513,126.567491094587
팔미돈가흑돼지성산점,33.4192923393592,126.842285556448
담소,33.4868163344156,126.482563079641
썬데이지,33.2754303456149,126.709330511903
갈비에제왕,33.2211616504023,126.254116244918
단초제주,33.4837354909656,126.487616077179
라쁠라주,33.5198526878097,126.494428745744
달리는커피제주노형점,33.4810286342072,126.476504167388
흑돼지브라더스본점,33.2829532713904,126.670537115288
효돈연탄구이,33.2613571584626,126.617336640909
주식회사보민,33.5054100714294,126.46965551405
끄띠탑동,33.5184245612121,126.528487081733
판,33.5153814647981,126.519743574964
아일랜드보울,33.4702422867062,126.544041946719
제주또바기보말칼국수전문점,33.5296051230728,126.592800641688
비비큐치킨점,33.2511948307708,126.563296988497
돈삼촌,33.5106261074587,126.536812454312
안세미국수,33.4831939758207,126.488026078602
시장떡전문점,33.2489380473837,126.565690739956
엄지족발,33.4860736825571,126.497369698259
다정한식탁,33.2584099208429,126.426336739782
에프터글로우,33.4886440704689,126.549348403134
만금,33.4840800184738,126.47315101109
국수도둑,33.4765346158541,126.480547264133
수제홍과일모찌2호점,33.4839133221694,126.413898807799
주식회사고은기업,33.4853157203838,126.490460881421
맥키쉬,33.5235974650551,126.565626795639
내일또순대국,33.245854618742,126.523359647403
돈이랑정육점식당,33.2489247448116,126.430077691977
아띠랑,33.24573693914,126.567047426034
연화차,33.4876094701648,126.714667948731
항구음식점,33.2410784474163,126.561171957451
탑해장국삼화점,33.5167094764458,126.576718240222
태백아놀자,33.5028902099648,126.543280976941
사계,33.5025006301057,126.534654731164
2010홍포차,33.4100253731574,126.264751960582
본죽제주영어마을점,33.2801596897186,126.277164377074
위즈피자,33.5185741272068,126.489281299974
위트레이즌,33.4950858818181,126.528109699001
카페데이앤데이,33.2456242877295,126.206760229643
미미끄,33.4904694985092,126.42769308489
7번가피자제주애월점,33.461021254607,126.32269086824
조선제일국밥제주점,33.4880914272083,126.593742858495
질레,33.5158086024092,126.540046815373
한끼맛있다제주시청점,33.4984363697575,126.530194604795
고피자시청점,33.4987109026405,126.53076508755
한스k-55흑돼지참나무장작구이,33.5050824241584,126.464309288527
삼대해녀의집,33.4067548573009,126.906415105854
레몬뮤지엄,33.29917415674,126.61742498639
교촌치킨제주시청점,33.4988369157519,126.530947781342
오례밥집,33.5310238412925,126.665774603797
번영가든,33.4875738675307,126.600021480692
산수정,33.2474063414639,126.559202307551
캐롯닷밀,33.4583258422595,126.415637903014
쿠주소셜카페이호점,33.4967971581511,126.452729117074
코바코서귀포점,33.2477046483296,126.564487942188
내가찾은맛고을,33.5222147635533,126.566418316025
제주삼다국수산방산점,33.2435115242091,126.326896402474
라신비,33.4378451954761,126.275573096118
다올키친,33.295794043412,126.289665926173
유나인아라대박점,33.4742823925495,126.544472099284
소시오도넛,33.5547996203628,126.798654540196
승우내숯불갈비,33.5189696726324,126.566342906203
창꼬치구이,33.5149297370231,126.527850337536
더벤티제주노형점,33.4866672791719,126.478299846426
홀가분키친,33.2679279590754,126.369705684087
로컬제주이야기카페,33.5169368847384,126.503101783451
리스투아,33.4889878623838,126.535940331736
정직한통닭중앙점,33.5108956807479,126.521394302127
오에스디에스협재,33.3948964040116,126.244660937062
보말맛집,33.4833977423181,126.412669040726
제주버들못,33.3278916069928,126.828192077178
춘천명동닭갈비노형점,33.4895841831598,126.475626204296
효진이네,33.2489911792996,126.567120552231
솥뚜껑흑돼지,33.2983860472016,126.600911581825
치어스서귀포점,33.2532324949248,126.510050850927
청자다방서귀포1호점,33.2530644734956,126.506867864491
달소금식탁,33.4847645224063,126.40628683186
러브,33.5139798573314,126.538022777466
에그드랍제주시청점,33.5009110436775,126.528362737806
아라초프렌즈,33.4783434599662,126.546637580715
춘에서보게,33.2212693156996,126.253622209606
피자헛서귀포점,33.2549788274856,126.570452422788
조은,33.4914793737593,126.473468400485
사쿠라,33.4863514750285,126.431390861436
제주돈집,33.2863646898021,126.30307867406
로쿤커피,33.4499803813553,126.367329870878
정원꼬리곰탕,33.4356988403208,126.909402827641
숲섬이라면,33.2371980905622,126.596175272242
통족표선점,33.3276052756175,126.830309784972
에디손,33.3950733433534,126.244283752245
기찬밥상,33.4611749851262,126.438627130963
도다모,33.4918591957163,126.543986142136
식사준비제주삼화점,33.5156186413749,126.576745079557
오늘쉐프제주첨단점,33.457516978807,126.574118570771
섭지코지해녀밥상,33.4357541577498,126.917482031859
대한민육,33.250391664615,126.55852318943
옛날아우내순대중문점,33.2508310675345,126.433436933868
색달해장,33.2463063172341,126.429797137234
미국식제주점,33.4900152607508,126.480018841236
하모리소갈비,33.2530262888425,126.506083848958
육회본가제주직영점,33.2474786578215,126.563961338333
명품사조참치,33.4875510944205,126.476521740345
대유,33.4152296304197,126.261765065942
흑돼지한마당본점,33.3247837334464,126.844007631591
춤추는닭치킨,33.4993217920132,126.513941369501
웃뜨르식당,33.495390076555,126.533442245979
한림족발,33.4178159872887,126.267891656025
이가네일품해장국이도점,33.4949258750323,126.547403543098
세이슌,33.497795088278,126.529439939716
탐나는전,33.492211979175,126.476803920996
용마갈치,33.5416239216494,126.667904490096
고불집,33.5012986105344,126.489742755704
현정,33.2262255787415,126.266415955849
아라숯불갈비,33.4736678462729,126.545892393151
맛존디,33.2589354639232,126.427605879761
그시절동태촌신제주점,33.478307938162,126.489942021561
일품순두부성산점,33.4361303967106,126.918019363551
얄개,33.5020723467427,126.543468975847
부가네얼큰이신시가지점,33.4781466885786,126.487439721284
면담,33.2569303613549,126.617875030745
동광녹색체험휴양마을회,33.3061870054803,126.337312755166
가자우리집,33.5164897367216,126.529574579314
돈돼지흑돼지가든,33.3248459962483,126.836749069446
미소짓는흑도야지,33.4938396285133,126.467220436507
라브뉴,33.4922711666693,126.530165814
샤오바오우육면한라대점,33.4766460554444,126.477480616851
옛날옛적에,33.2474786578215,126.563961338333
밥먹자,33.4354937090078,126.422006922079
제라진뚝배기갈비찜,33.5046811177077,126.465705983911
동백정원,33.2495687804731,126.44656909134
삼손가든,33.4106271015504,126.271800464397
골목카페옥수,33.4398685668933,126.380017463191
다이아,33.4803082116712,126.490270392737
꾸브라꼬숯불두마리치킨,33.2571407355852,126.524251232783
하귀정담,33.5120584568629,126.522420932643
상희네돈숯불구이,33.2480418491134,126.583840208971
동트레,33.4687804309891,126.929127141849
컨터,33.4834486507257,126.482204050075
만족,33.5095547391991,126.943512239399
리게인프로젝트제주,33.4840668987491,126.484437811004
모이세해장국중앙점,33.2543369894178,126.565066082675
태봉이네,33.4840568588343,126.485232567715
아노드,33.4723935907468,126.546894809982
수산식당,33.4669134321641,126.393364885024
국수몰고랑,33.4907614382781,126.492242859506
장인의집,33.4658030077714,126.326848634998
에이바우트커피아이파크점,33.4842829204892,126.478104976286
그라인딩홀덤펍,33.5032142110811,126.541978052225
도두후레쉬,33.5032842258904,126.46590096273
김준호의대단한갈비제주노형점,33.4769924323588,126.48645080653
제주돈삼겹본점,33.5081762162335,126.539764752479
사는맛먹는맛본점,33.4886019386899,126.388888078314
연희네밥집,33.3252587148744,126.833587916787
고래배꼽본점,33.4960408850309,126.956002132817
해마그룹건설제주지점,33.5049586041033,126.513107869561
청을담다,33.4890908165207,126.529553734935
호텔롯데롯데호텔제주델리카한스,33.2482710924721,126.410412652417
다다미,33.4886504032297,126.476905716858
버닝썬,33.4874857542917,126.492304047492
백양닭집,33.51135177001,126.518549091957
홍소반,33.5006980392794,126.542513134631
청이네,33.5065361913727,126.52464225931
오반장,33.2207468374522,126.251582193764
만촌,33.4940039366611,126.536364773111
바른곱창연동점,33.4861810675801,126.486789851952
노형근고기,33.4870551269097,126.477717886571
창영왕족발,33.4995722715063,126.546130926806
요요무문,33.5381006264754,126.836678988706
원진각,33.499945205775,126.656710918243
에이바우트커피외도점,33.4907399624259,126.430685034963
홀스버드,33.506753496608,126.540904805726
유가네닭갈비제주동홍점,33.2563555071882,126.574670166281
영락마을회관식당,33.2581641941863,126.211781292127
마초면탁해안,33.4647769927847,126.455271713634
비피엔씨주식회사남궁미락지점,33.2424686727285,126.565099544065
라라스토리,33.485546272616,126.484686202604
제주돼지,33.48901570834,126.48913325728
도련들,33.5073807713142,126.590202951864
브금,33.463971138853,126.313672902337
제제,33.4827299916647,126.48551639367
의정부,33.2512511687226,126.559789409921
마당민속주점,33.5018792874218,126.546480911787
락쿤,33.2701183583336,126.673504563744
아방국수,33.2484175240341,126.564243826605
두들리도넛제주노형점,33.4780335028797,126.477883810402
지코바치킨신제주점,33.4870250240845,126.482512988781
즐거운밥상,33.4601850601145,126.433854172799
국수1번가,33.249837075003,126.303448489987
코소롱,33.2852062004362,126.275869158138
롸이스페이퍼떡볶이제주영어교육도시점,33.2806767259828,126.278197801801
용흥정가네식당,33.2604745931194,126.486293193559
족발이닭엄마네식당,33.2352697641714,126.494182094673
탤러해시,33.4894823443967,126.475039635496
모이세신제주로타리점,33.4908866719635,126.497552150486
치사토부엌,33.4812844495935,126.490049491662
용머리생선구이,33.2339097857351,126.309905224696
한라흑돼지,33.2731310015375,126.653977515722
메가엠지씨커피제주노형점,33.488791366549,126.476574642264
집나간왕새우바람난조개구이표선점,33.326112375336,126.833385237448
엘로이,33.4838802065943,126.482411184575
제주섬신룽푸마라탕시청점,33.498351125609,126.52947029141
배스킨라빈스제주한림점,33.4141935384907,126.263663376157
애월빵명장,33.478423764132,126.357288543712
청년구내식당,33.5143503941359,126.525095716195
올레2번가갈비,33.2501064302758,126.558788923055
한라생얼큰이아라점,33.4752069177004,126.549760312404
앰버,33.5013093645207,126.544213384785
에버그린돈까스제주점,33.46203394552,126.312785147853
터틀락,33.2771972284004,126.363764593452
쇠소깍돼지갈비,33.2635300973261,126.616929420835
이가네일품해장국,33.263276398378,126.613933174365
사쿠라인,33.4976737954841,126.529836178403
준식당,33.257307589588,126.505475636221
솔솥,33.4934784953582,126.43016620522
뒷빌레식당,33.2727074405479,126.589638078041
제주주민갈비,33.5142565577759,126.519954615376
애월당백화점,33.5037710622713,126.503619024973
삼다돈,33.4841374310807,126.483318726156
제주대패삼겹살이도점,33.4993379447553,126.536100341612
국수명가,33.2343584341546,126.309207447393
제주김만복함덕점,33.5379595122316,126.674844345954
통큰뼈감탕,33.4855335971562,126.417021101866
한수어촌계톤대섬,33.4232641848896,126.260792194839
올더타임중앙여고점,33.4911301659936,126.537563088908
금순이네,33.4832617650395,126.470534974998
해방집,33.4898722416159,126.475328024043
노형짚불도,33.4819328571956,126.47425026261
하와이안비치카페,33.4352096199783,126.917537283292
오젠,33.5037169608078,126.542227880069
줌마식당,33.49295754789,126.489065452987
청춘괴기생고기전문점,33.2535649640473,126.510450019808
통큰국밥,33.4900169401632,126.43380549213
청정식당,33.5010314077311,126.54308852788
정자네흑돼지국밥,33.3939711369692,126.247307623295
차차커피코제주연동점,33.4861409298057,126.488224688428
어머니와보리밥,33.2480272477657,126.560896869127
일품물항아리,33.4775855209634,126.477717263219
네코샌드,33.4897889692805,126.47685034281
난타5000연동신광점,33.4918542917582,126.485214733367
아이,33.5032176473127,126.541201023959
삼다도식당,33.4487856,126.9154978
호또모또,33.5091588712147,126.476992439024
하오,33.4888107466502,126.486551822164
2실로와,33.5039767081491,126.530541773865
조은이웃구이집,33.4932376506355,126.484857364286
르토아베이스먼트,33.5329399734111,126.844168064897
만사오케이,33.5045179382554,126.521913594518
아하,33.4891223026609,126.492584914056
인천상륙작전,33.2806767259828,126.278197801801
경춘선,33.5119000586156,126.53874634042
밭318,33.4983335982828,126.966446461043
하루밀담베이커리,33.4856607588061,126.544582008431
박세현의보고싶다제주라면,33.4941240024185,126.446106351007
교래퐁낭,33.4260859982314,126.674111760744
프랭크버거제주화순점,33.2478748607856,126.333098792702
자몽,33.5057268112062,126.543699902986
돈떵이서부두점,33.5184245612121,126.528487081733
통통,33.2177373732368,126.250928608813
향토맛집탐나도,33.4943129782575,126.54975657141
대성아귀찜신제주점,33.4828216520743,126.486182501448
제주근고기집,33.5158375204171,126.523932670877
늘고팡,33.2545552487849,126.571290574353
미담,33.4882687088249,126.498818876797
청우식당,33.2530205463907,126.50713628184
쌍둥이기사식당,33.3103862469228,126.341229570731
교촌치킨제주1호,33.4862510268035,126.484052904663
바당칼국수,33.2377942968251,126.366078168923
얼큰이,33.5208194218229,126.580785679194
추사랑,33.4885266451161,126.43005563841
미화식탁,33.5045597355515,126.521320374777
오캄커피,33.4995498771877,126.531801193571
구이구이돌담집,33.2524931510432,126.505605882684
색달로망스,33.2608241161807,126.41116017361
솔오름아구찜,33.2634783146363,126.567463805387
소망식당,33.5328567817894,126.618621379289
썬더치킨삼화마트점,33.5173038341388,126.587199170388
오솔길,33.5173940132857,126.538171251781
치킨플러스서귀포점,33.2549371978472,126.557524633544
서귀포토속촌,33.2504326894157,126.572800038442
혀니푸드,33.3960408950916,126.669144945634
빙고스토리지,33.4901064725093,126.491373379353
모던돔베,33.4571765591866,126.486105252055
아는동생,33.5025333501715,126.520139873618
하논미가식당,33.2517407262355,126.55333365945
카페은수,33.4521658436884,126.384545904518
갯마을식당,33.2998459837914,126.76693409612
명품갈비하우스,33.5140056541907,126.572585073618
스카이바,33.51286310046,126.580374908418
한샘해장국본점,33.4688285080327,126.510133054742
투다리전농점,33.5042975682575,126.516772168278
비선루,33.3991095569272,126.24454752421
민들레식탁,33.479309718888,126.490034595068
다빈장,33.4725437821108,126.355721485959
반올림피자샵제주아라점,33.4746133991091,126.542961827559
고촌,33.4985812335979,126.545072017087
쿠야,33.4862155279953,126.493412292057
꼬신김밥노형점,33.4821871430197,126.47498207822
일등본가,33.4879177197458,126.47648811543
시간여행,33.4989222102442,126.519559744855
선재샤브&월남쌈,33.2223404338314,126.254629941381
풍림다방송당점,33.4718352127284,126.785612599356
해녀삼대할망네,33.1168702147508,126.265889786522
제주올레냉면제주노형점,33.481915115198,126.4701476586
오멍가멍술한잔,33.5043147445373,126.517732692039
다은식당,33.4931447260196,126.536873274405
성우디엔에프,33.2523833,126.4911269
주식회사아이엔케이,33.5309179619434,126.589805051457
회포,33.5194376144904,126.573148116194
쏭스,33.4881890869611,126.491754302716
김준호의대단한갈비제주중문점,33.2512417375319,126.42982249541
남다른감자탕,33.483749527838,126.48460872255
추가네추어탕,33.4966470292173,126.519533142119
테라피쉬,33.4609864988401,126.562232010146
산이마을가든,33.2589348058745,126.353709164583
갈비마당,33.2531547030813,126.510811371383
노리매,33.2831974218091,126.28741409525
바당소리,33.4890969977947,126.479505260782
빽보이피자제주이도점,33.4921541502691,126.536440701508
테라도스,33.4528009873738,126.342511290037
너븐드르우리어멍빙떡,33.4822734657311,126.470942093722
배불뚝이,33.484890384313,126.429023404313
원푸드마켓,33.481690458375,126.483912422631
노형집밥,33.4875792305396,126.478233584827
말차이트,33.4934231976789,126.956864861752
달빛사랑채,33.4855243347753,126.487614689725
커브커피스토어,33.5261514831864,126.577404250013
미소주방,33.4137529230352,126.262766082754
신영돌판구이,33.4866003926779,126.497058494176
수궁식당,33.2489533549359,126.55810870676
고을면,33.498882335627,126.544597479497
꾸어삼겹,33.5102561615703,126.532199345016
행복한밥상,33.4078157947519,126.873927320204
주점부리성산일출봉점,33.46535637169,126.935016036039
우리들푸드,33.2289246098687,126.248106419093
솔비,33.4905261739167,126.491815434144
이층식당,33.4154906488316,126.262433496101
용천상회,33.2348463274431,126.488990142702
제주애월한정식,33.4728493752088,126.352218671003
수리조아,33.5096236075938,126.539685518249
엘림소반,33.2645598399492,126.260174510173
꼬끼오에끌릴레,33.515390108316,126.525919679136
띠아모제주공항3층,33.5077816117418,126.49313255015
돈뜨레흑돼지제주공항점,33.5165031519199,126.505630895543
여우네,33.3205069321952,126.746726232662
뜨르르,33.4922330414093,126.497624325132
화북옛통치킨,33.5198159836609,126.565850213502
우도숯불갈비,33.5084305926385,126.953655408656
한강식당,33.4938370613228,126.445046097995
디지홀덤아레나,33.5412900457673,126.667394564371
광동식당,33.3290066607451,126.798274854126
간세라운지,33.5126081914512,126.524328141203
킹콩주스앤청춘감성쌀핫도그,33.4784636955369,126.478043795483
중앙먹돌,33.4886391418104,126.538818691227
수상한사칠이,33.555130909999,126.796860069892
어군,33.4857558270525,126.472837763767
태도,33.4840894841417,126.492553255836
황금손가락산방산점,33.2342165598366,126.310596101297
박여사네,33.5438478873568,126.660329252157
꼬꼬아찌숯불치킨서사라점,33.499450375408,126.520657076235
일출회포장포차,33.4694487634533,126.919203538668
신산복어집,33.5114359091799,126.531964822494
밥정,33.4769115447956,126.489634115761
용문닭집,33.5093303222532,126.509313445494
제주맑음,33.513445150778,126.521008935823
한빛국수전문점,33.4851317524117,126.490516187278
동네국수,33.3532258125496,126.258901576152
제주금돼지식당,33.4827063282634,126.484638356175
애월사이카레,33.4843639222961,126.381126047757
막창꾸우맨,33.2528007569457,126.511760362558
혼차롱식개집,33.2497003681685,126.565714332598
원더샌드위치도남점,33.4907788467862,126.52786426821
24시뼈다귀탕삼화점,33.5186087356196,126.569202397639
김밥천국외도해운본점,33.4877094872168,126.43124221541
중문포차,33.2514692555779,126.426712606166
아트진,33.2536123559836,126.508635433144
통큰갈비제주일도점,33.5051634398429,126.541657296623
동구밖식당,33.4798122220731,126.399370029354
왕가탕후루,33.4983506420765,126.530507468544
더블에스,33.4867273979084,126.492319447431
보목식당,33.2584746282766,126.591346603614
이노찌,33.4525314781258,126.379939414007
수,33.4823851588751,126.470812088022
상남자맛집상남자식품,33.3466392929925,126.182594638747
오데뜨,33.4109076355209,126.295607389601
명동찌개마을,33.5047326954934,126.525054298363
광명,33.5122112232062,126.528195205508
족발야시장일도점,33.5018725924142,126.543357133774
우리할매떡볶이신제주점,33.486137584867,126.474690648313
알빵쓰레빵,33.5026370251726,126.543129488526
금성해장국,33.5124864478239,126.56342595441
한라생돈,33.4781574861821,126.488853576618
킁킁,33.4662780651553,126.508832319633
여기야,33.4901130186723,126.478265949803
탐라도서관점빽다방,33.4800125504835,126.478003090652
대박왕갈비,33.5107542565133,126.54174266145
갑도니,33.4979470916559,126.529272425509
흥부네정식,33.4815518303887,126.489187942
이돈갓아라점,33.4742668649007,126.54952386489
다담주,33.473585537563,126.544371067905
라헌,33.4823763387947,126.509247815419
해장촌,33.4973608350294,126.447084263598
월랑다호,33.490035553545,126.47952654641
양평해장국,33.2401450644819,126.562806658099
메이회전초밥,33.5144556451939,126.579409284223
현대그린푸드국세공무원교육원,33.2560268074043,126.515201607723
뜸들이다노형점,33.4836091495136,126.479367011789
페리카나치킨삼양도련점,33.5113617097382,126.589534319679
핸들링,33.2357723849094,126.363530161333
더시그니처,33.487771044618,126.490289837817
명륜진사갈비아라점,33.4746118577942,126.544723412302
조선옥,33.4927545070671,126.499916440466
Kim&Kim,33.5093212467565,126.520209068354
가파도봄날에,33.1695576693522,126.270480329848
새벽해장국플랑,33.503221587986,126.465529847861
해담원,33.4669739003283,126.32053679023
주식회사브라더들,33.5093504954623,126.473871091909
죽마고우,33.4772985412153,126.48922613703
송당송당,33.4348221939996,126.735714865899
오태식해바라기치킨일도점,33.5054739041663,126.541669758544
동광지우식당,33.3095731307592,126.333646129922
레드서브마린,33.4401231537699,126.277770438436
장수마을밥상,33.2531063814445,126.571018102913
달그리안,33.4979270931906,126.967915440527
무한질수,33.4991701351306,126.529471025931
큰아들시청점,33.4996520823696,126.527895092343
주식회사희양양,33.5122038425301,126.543674194361
한라진칼국수,33.4954080773614,126.438262745698
깃든,33.5430805448558,126.829614026959
정현갈비,33.5155488339084,126.517386105597
곤지암할매소머리국밥,33.2572119031595,126.349868701121
공설,33.4985449934468,126.5166643429
일이일흑돈,33.207204313197,126.290303299991
시더스초밥제주연동점,33.484954681864,126.501894452623
하귀바글바글가든,33.4869540877611,126.41620578187
노랑통닭노형점,33.4765353730026,126.479030623396
섭씨제주,33.5127832190494,126.50801476337
제주돈대패삼겹살,33.5217804600162,126.582744224093
효은,33.2518580495537,126.31459765981
굽네치킨연동점,33.4854052101743,126.491768949491
정은카페,33.4480154851806,126.915648273309
숙성정육식당,33.488977952686,126.489707316128
한점,33.4752069177004,126.549760312404
날씬흑돼지,33.238230270823,126.306522284645
1992감성포차,33.4127166225774,126.265194888839
트로이,33.4867571862408,126.484769413924
잔물결,33.3881431128333,126.229752960294
황동차이나,33.4445116110474,126.382317096016
양,33.4830787814711,126.477191625107
함덕차돌,33.5436290890474,126.661125572723
스시권,33.4855361958068,126.477841594288
마커스카페,33.554922434655,126.799944313255
정이고을,33.4998550843236,126.513023125098
신엄시골밥집,33.4710295096754,126.367014617382
크리스피201,33.3864717704688,126.229422497988
가미돈,33.4943469068573,126.459899793532
중문해물탕,33.2521980257609,126.421841250583
숙이포차,33.9628723892019,126.294552082139
흑돈오리,33.2478455677176,126.564692410781
큰산식당,33.2532177,126.5609945
신의주찹쌀순대제주점,33.483749527838,126.48460872255
소봉식당,33.247014567724,126.303093713461
퐁낭조수식당,33.3326963725531,126.224784187429
파피용살롱드떼,33.3259865051704,126.836573166435
시나브로,33.2566188246348,126.572972224933
차롱가게,33.302549650179,126.524574554633
고씨네붕어빵,33.5132741647064,126.525636632311
우아당,33.2413973634835,126.51840740075
똥파리네연탄구이,33.5006668931008,126.532693557715
누구나홀딱반한닭강정점,33.2527333813766,126.505978186064
어디가코용담점,33.504895494866,126.513613396113
무드,33.4993360789459,126.529460658085
제주등대아구찜서귀포점,33.2531547030813,126.510811371383
주식회사에이치비디프로젝트,33.4898144004145,126.53800382845
화산흑돈마루,33.4364170217932,126.921935409865
해변풍경횟집,33.518766260643,126.489501259448
해녀횟집,33.5175155788935,126.521107594855
대구불노리왕막창아라점,33.4493365507624,126.558112342766
60계제주시청점,33.4988537557521,126.528472145775
79대포제주시청점,33.4992384978844,126.529643053928
옛날아우내순대노형점,33.4790727362579,126.464833937896
유한회사카페노티드제주애월2,33.463216978403,126.309713460168
도브다이브,33.4937853324941,126.533682316641
클로이,33.4859020696566,126.495961378358
라산그룹제주월드컵경기장점,33.2466363441709,126.509015911576
국수나무노형점,33.481601724553,126.481726140893
대영수산직영회센타,33.523964927669,126.855094627001
양순이네순대국밥,33.5033297950232,126.527784188184
소라네집,33.4103804985011,126.908060249489
짱아저씨구이구이,33.4649368441624,126.932801095547
피그농원,33.2289246098687,126.248106419093
채우네소머리국밥,33.2496623846615,126.564778692501
갱길이네고사리삼겹살,33.5068503933044,126.509264159151
둘치스,33.2540010072655,126.305610494059
휘도명가제주인제본점,33.5019887240073,126.543285496326
곤밥보리밥,33.45827623324,126.32183977882
명인장어통일,33.5004322175293,126.519262993423
서귀포화정식당,33.2484635850559,126.559200004684
형제돼지갈비,33.508988365904,126.533496282509
아방도르다,33.3489902760673,126.182772265935
위찜서귀포혁신점,33.2535893519031,126.505221220442
집밥뚝딱삼화점,33.514534356045,126.57605074276
위미항면카페,33.2717809799461,126.663833182854
제주명월역,33.3917184884063,126.26215058142
주전부리,33.2211792908758,126.253464643258
이구역에미녀,33.2434576474844,126.562598423567
마리벨,33.2105460728876,126.257605181651
케이오늘,33.4834543433421,126.490385597432
김준호의대단한갈비제주서귀포점,33.2536263745533,126.56407599914
제주엔찜함덕,33.542500789037,126.669480309529
다운타우너제주애월,33.463216978403,126.309713460168
파티세리에이비씨,33.5169112118794,126.522641077961
도랑도랑,33.4880866462799,126.497186447708
양과자회관,33.3619823563593,126.765785244278
친정가는날,33.4048980127843,126.25704365144
동그리생생,33.5014733746264,126.542479353593
종달빛,33.4958093927189,126.52689925186
흑본오겹제주공항점,33.5127134928136,126.484504219786
성두길일오포차,33.4916242498437,126.494378830241
부가네얼큰이이호점,33.4929068576296,126.462879732366
유안이네횟집,33.2640126965164,126.375891500323
뼈앤돈,33.5297741324253,126.66527032256
별미맛동태,33.4960778176069,126.533156510573
더팔당제주,33.487137521463,126.491613034677
하이데어키친,33.2555008915353,126.525747711371
목마,33.5230890516108,126.559599450837
부에난소라법환마을,33.2341735412752,126.5135733304
제주다온가,33.2348734552282,126.367486908895
너나들이민속주점,33.490257868382,126.534311441475
베라체,33.4944350855736,126.548204657953
돌하루방국수,33.2442779708939,126.559843681532
브릿지유한회사,33.2455931951362,126.566652188682
미풍해장국봉개점,33.4933947882349,126.587543911271
제주통돼지바베큐,33.4940106274349,126.434044965354
렛미인,33.4808845957688,126.490773771467
유년기,33.4651109439747,126.320189137017
도남앤횟집,33.4962481702809,126.52741178118
탐라해장국,33.2589141410728,126.559363560117
꿀꿀이식당,33.4905608527787,126.492225414848
다니엘스키친동문시장점,33.5114481876659,126.523713468101
장원흑돈별,33.2470940324508,126.562270201582
세화샌디,33.5239998851912,126.861940214628
일출봉,33.5151156871418,126.538121037732
대게와킹크랩돌꼬망쭌포차,33.4964160677065,126.537549084946
해이랑,33.2774237693419,126.718421146535
용두골,33.5165031519199,126.505630895543
수수로,33.4589042213493,126.713892457621
제주해물궁이호테우점,33.4957010937235,126.456805903676
탐라밸리,33.2549363087471,126.51817603089
맛있는집,33.2543649808348,126.561048890795
원당해장국,33.5229445471113,126.588850004118
범맥주제주연동점,33.4868092233199,126.490245331296
샐러드바스켓,33.4896592864,126.491549986195
자금성,33.5358879656448,126.625039033905
오토김밥제주점,33.4905513739334,126.477774049874
이태리너랑같이제주,33.4992541147714,126.522669680901
용팔이막창아라점,33.4702367591331,126.546442802183
마왕족발제주성산점,33.4499476673419,126.915823330241
하가1476,33.4554970807399,126.349190022586
매운디,33.4924966575903,126.544780267851
우호적무관심,33.3377349119397,126.267208969106
중앙간이식당,33.2467313569695,126.334852854539
요술식탁,33.5121070182582,126.521874443477
라우나,33.4723611611703,126.548063200948
솔브레,33.512736528525,126.52782673239
백퍼갈비,33.5171172716846,126.579977641779
세가름,33.3494138712343,126.184985161811
손두부집,33.2488949005804,126.558049875096
미스제주가든,33.2532047134343,126.420839420589
소문난간장게장,33.4842606005395,126.406790047728
한식의품격신제주점,33.4862581704034,126.491540271626
사람책방,33.4988232855392,126.529445460962
전농로일공일,33.5045390234404,126.524182229725
남성해장국,33.4188555034728,126.268103225852
동해식당,33.5430741613586,126.661950976727
막창상회,33.5001813974775,126.518543895864
우무깨,33.2792229,126.3069192
백록담식당,33.4872322543905,126.490531325976
가마솥국밥,33.2187859936729,126.251954802034
진대감,33.4831632909433,126.468634282897
청년다방외도점,33.4872754330803,126.432376345296
가파도엔아이스크림,33.174398288714,126.271263518439
경희네몽생이,33.4865356591574,126.492128718576
수컴퍼니,33.5077427766965,126.542137374072
능가,33.4980226437369,126.51678830985
블루하우스에프앤비,33.2519053122501,126.559257949571
한려원한정식,33.4947436017462,126.546745495914
가파도바다별장,33.1742481865676,126.270881580906
그리너제주삼화지구점,33.513212775868,126.57255377673
황금식당,33.2582547112019,126.575121786768
보리갈비,33.3502973108524,126.182827088189
부가네얼큰이첨단점,33.4545739634666,126.571968867499
수구레해장국,33.5216447311996,126.567539776988
돈야탑촌일도점,33.4931432373962,126.546095604387
처갓집양념치킨서귀포점,33.2488254805469,126.557569599369
아워홈렛츠런파크제주점,33.40752269491,126.398648320702
대마족발이도점,33.4942714418807,126.547931537654
서울인더스트리포트그릴스테이크하우스,33.2405494940455,126.56225625382
60계치킨제주서귀포중문점,33.2508310675345,126.433436933868
알토산고팡,33.3088392770773,126.779676992622
보목자리돔축제위원회,33.2413724311641,126.602911636769
방파제가게,33.5418912172925,126.634662921139
한림오젠,33.4156635923765,126.263483793054
정든반점,33.4894860446825,126.473276989425
애월더힐,33.4416523190215,126.401740306222
사랑분식,33.5124684515098,126.527841427099
대한식당앤오태식해바라기치킨아라점,33.4702367591331,126.546442802183
천우정원,33.5012080837079,126.515848014637
시청중국관치킨호프,33.4979057806297,126.530360611392
유한회사갤럭시아,33.2338097875121,126.310423880496
만조이천쌀밥,33.4608854476929,126.931132827863
성산갈치맛집,33.4683453479398,126.917519793977
임치비뼈해장국,33.5238356529828,126.85273729005
아워홈렛츠런파크제주점한식당,33.40752269491,126.398648320702
용의주도,33.448984573005,126.558671355664
밥쇼핑뷔페,33.4622020606228,126.324541623166
한동네,33.2452824555546,126.569992533628
착한낙지연동점,33.4897853158095,126.487018336664
찐하오마라탕아란점,33.4733167602084,126.54478515983
신평올레,33.2671662319425,126.259209241529
이디야제주외도점,33.4902159271087,126.431227767014
국수의전설,33.2634376544887,126.610363173681
제이문,33.555331635012,126.808533280887
김준호의대단한갈비제주삼화점,33.5167094764458,126.576718240222
학창시절,33.4887604483485,126.488341844926
자키커피,33.5120543270179,126.525428459573
모디카,33.4108340298045,126.267590856881
제주몹시,33.4945500877498,126.433599941089
해월향,33.4468842055703,126.914423934221
삼다소머리곰탕,33.5055371744481,126.524463795207
웃뜨르우리돼지,33.4885756329677,126.489568826456
은실네연탄구이,33.2532177,126.5609945
71금돈,33.519164981982,126.572523211232
탐나숯불갈비,33.257081172008,126.573337534783
제주할망밥상표선점,33.3202444919275,126.829403353988
제주더사계,33.228821134738,126.306870009236
뱃사공,33.5223913867742,126.568173738346
루핀,33.2103918051906,126.29142640857
담소식당,33.9630067620483,126.295725299103
홍돈가,33.4781349590225,126.479991921015
북촌에가면,33.5479504069015,126.692629771028
서영이네해돈가,33.4905162532923,126.492782951687
차차,33.4834221522639,126.482961886634
다희네민물장어,33.4861135010478,126.427250030811
너럭,33.5161393926711,126.508880095005
서홍반점,33.2645786425077,126.558784752841
가시버시정육구이,33.4906239424003,126.489652253206
뽕이막창,33.2472933107065,126.563147173653
수문미트,33.4902208756707,126.478143819596
지영상회,33.2522502331569,126.623006619381
고부루키친,33.2470694419595,126.552723147403
한일관,33.5195662090247,126.580838978432
제이제이케터링SJA,33.2847987423347,126.2845688042
육장갈비외도점,33.4876787475327,126.431400371947
달비치,33.5550785864878,126.797171077496
삼수정식당,33.4486863783581,126.915654184625
지꺼진식당,33.5208160007779,126.565405180817
끼니,33.4831674653943,126.492210888433
이리와,33.5032142110811,126.541978052225
쏜,33.4846352371809,126.482679233778
싱싱우대갈비,33.4775855209634,126.477717263219
양자강,33.2473582066564,126.334878258272
일곶,33.2835334621376,126.588656277148
보말바다,33.2585037535888,126.405976009564
주식회사로컬리지,33.2315845453857,126.296438504473
색달어멍,33.259829311255,126.413420221239
인다통닭,33.5218225717126,126.566366882343
우리집다음에맛있는집양평해장국,33.3346917029975,126.256385904475
소랑벨일공일,33.2764407441632,126.717042181085
정곱창,33.4862423031405,126.492486256831
제주가마골앤드코다리냉면,33.5068460785476,126.547691386726
제주돈담,33.4873141297841,126.476835741243
단비식당,33.2320635201845,126.308893876976
레드사이공,33.4989179068978,126.51924058645
네츄럴파크리조트,33.4783648243983,126.370237305999
한솥도시락제주중문점,33.2516422013438,126.423964583428
미스터피자제주중앙점,33.4997930102783,126.529485520069
애향포차,33.4908210243171,126.490680754756
오멍가멍쉬멍,33.1668793300527,126.272502944783
코코망가스,33.4524294753922,126.436985183548
장수버섯샤브샤브,33.3258706005561,126.835786664641
신시가지네네치킨,33.2580449267327,126.5123673711
쇼밥,33.2440761505675,126.296501751958
성산봄죽칼국수,33.3808020190326,126.876518391081
전주아줌마,33.4892782317856,126.487185634075
정인국수,33.4236556491553,126.407992306714
맨도롱제주,33.2338893067577,126.313602148649
제주한양,33.2530609786957,126.503767985374
어멍식당,33.4742385245647,126.64468331924
키작은삼촌,33.5546559528869,126.747962461137
골뱅이포차,33.4962552424465,126.537312658866
와인도시,33.4849221803641,126.493012247206
하나식당,33.2205297006439,126.25321303574
비금면도고리,33.5310111006866,126.68329548662
못난이식당,33.2257425736348,126.256632460902
부가네얼큰이서사라점,33.5062234314405,126.525065958059
우도돌담집,33.5171980248962,126.949233387053
피엠푸드서귀포점,33.2563877869868,126.567767251291
투빅,33.2791405051492,126.719630234533
세화통닭,33.5242312897276,126.854504495938
북촌손만두제주법원점,33.4920134566839,126.535609985519
돼지공화국,33.2653656677973,126.570604002615
용연횟집,33.5165374286661,126.515193140447
누구나홀딱반한닭,33.2786058622722,126.718285318953
한끼,33.2507148060657,126.563631818448
이학,33.5089900761709,126.517558234425
다찜,33.4514485124125,126.914017298035
장인의집공항점,33.4812106372893,126.500729899322
주식회사크리에이티브통제주,33.2548548576598,126.409261291748
솔트스톤시청점,33.4979394632979,126.528996978718
보배식당,33.5113654793184,126.51792444447
이든모아,33.2105460728876,126.257605181651
서진이네해장국24시감자탕,33.4866331327218,126.488601723022
흑갈후,33.5120679574415,126.526752557047
앙데팡당,33.473684249301,126.353687828035
노가리앤비어,33.4514910594434,126.914525890791
굽네치킨외도점,33.4850920013062,126.429556725721
쎈얼큰이,33.2511183982755,126.562868024632
한푼리포차,33.4978250205662,126.528965207139
서프스시,33.251043670649,126.423354171223
빈대떡과사름덜,33.5028161410442,126.541656539659
통통돼지,33.5033002343432,126.519579035704
반올림피자샵노형점,33.4838216759534,126.468223877641
아라파파북촌,33.5513137095108,126.696652396682
김가네흑돼지,33.2500206029287,126.564238124138
블랙포엠,33.4609409198288,126.560867214234
가파도핫도그,33.1731649954546,126.26899332964
머구리,33.4874315671216,126.391301556871
포차7080,33.2224013492449,126.25424818114
오봉집연동점,33.4934331632281,126.494413188315
가본,33.5164149747128,126.528762767225
주인의취향,33.2514625498715,126.522555933073
애월정거장,33.4644124597712,126.319789805603
꼬닥꼬닥걸으멍,33.1728136713335,126.26964508951
마루해물,33.518982603019,126.491135230216
다락방소주방,33.4164740712355,126.264174582318
소랑한닮,33.4631951430511,126.310163912589
레이와,33.2346047417369,126.294331018715
탐앤탐스커피외도점,33.4945139430889,126.435597589807
엔젤,33.5053781099095,126.540975672335
카페하리,33.3200536093488,126.267051445205
국대전,33.4867531178622,126.431387591164
이자카야도,33.5060450765863,126.464023647689
던킨제주삼화점,33.5162889146509,126.58030455154
철가방을든해녀,33.1165527187244,126.266052713579
주민상회용담점,33.511758929324,126.512280106337
세영이네,33.2495597652836,126.563411355224
도두264,33.5093504954623,126.473871091909
청호식당,33.4105471498956,126.907861080284
홀덤라운지,33.4874795256266,126.492522295335
독도는우리땅,33.4871206257932,126.495642175046
엄마뼈해장국,33.5120545868,126.505260979654
미루네닭갈비,33.4599498713074,126.93069092949
우도우돈,33.5086447600943,126.953512796085
동백농원특산카페,33.2481079029858,126.553214681909
어디가코국수,33.4969159075007,126.52981003646
이카부두인제주,33.4352059149113,126.910502039379
통큰코다리하귀점,33.4853866416525,126.415815609855
봄향,33.4942471046116,126.547611960549
마운트에베레스트,33.5150325826657,126.525672349623
범맥주제주시청점,33.4997442672807,126.52871138794
산방산고등어쌈밥,33.207204313197,126.290303299991
빌라드라제주,33.4480959482342,126.904512336206
천안삼거리,33.4343070926116,126.718181683596
은혜성,33.492860759505,126.441380497846
오제이상사애월지점낭푼밥상,33.4835118523279,126.488937469952
탑고향,33.5160499565932,126.526761875309
제주사바,33.2753199824061,126.701303066353
요리음식점현,33.4824781153317,126.477891360841
이호테우에오면,33.4967897109611,126.451330548964
도란도넛,33.4868547975512,126.42944133687
케이엠지엠한국마인드게임멤버서귀포점,33.2530205463907,126.50713628184
바다마르마레,33.2105496345077,126.291402827148
탭하우스더코너,33.4878001190012,126.481864825168
한라산저팔계,33.2500297358775,126.560836527302
제주오라방,33.2475036974282,126.564108328832
신명가,33.2532177,126.5609945
무공돈까스제주이도점,33.4946131147168,126.534337411239
칠사돈한담점,33.4620763425856,126.312187711287
영하45,33.4834951573648,126.496688563412
응그레,33.4746113519937,126.540554651743
누리마씸,33.5074272225256,126.526735199632
이디야커피제주중문점,33.2548548576598,126.409261291748
토대력스마일점,33.499703632129,126.52477635385
카페시소,33.5433681643018,126.634863539568
신제가든,33.2749839082912,126.668220193068
돈내코숯불갈비,33.495648390459,126.53649525503
해금성,33.4852315291462,126.465402907032
빈둥,33.2474246838159,126.563713839864
돈사무소노형점,33.4867188187693,126.473920286237
글램큐,33.4585435187539,126.484987346805
더하노이,33.2797294191673,126.276757340352
대한축산정육식당,33.4958389687986,126.527514619732
돈가마을,33.2550606298006,126.437380116834
제주고깃집,33.4893116336679,126.489598295427
용담포차,33.5101732841059,126.511040199692
쇠소깍불근돼지,33.2505017503356,126.620533900198
고집78,33.4745741484443,126.357700929199
베롱베롱인행원,33.5534480349828,126.822518718806
순옥이네명가함덕점,33.5405733157835,126.673951050974
미레이나,33.2800655566425,126.365727379942
힘찬장어,33.490559486567,126.492486145297
왕성참숯구이,33.4524051504631,126.914319343852
일품쭈꾸미,33.4883329054238,126.48379619907
화요,33.2498100533494,126.560593930617
제주지현정식닭갈비,33.4833355160252,126.469923499473
도근네횟집,33.4946973939574,126.435196958993
그랜마스아라점,33.4748328903237,126.544712788917
야미포차,33.4905551120292,126.492342628197
볼레낭개,33.2420833052788,126.604873485037
강정해녀의집,33.2275633460436,126.474728011604
연동뷔페,33.4836164575244,126.491682776581
미소단밥,33.4506256929281,126.912330350003
자가제빵선명희피자서귀포점,33.2620432459372,126.560766009659
함덕피자클래스,33.5405341516827,126.667361391592
연지식당,33.5195662090247,126.580838978432
수미일관,33.4841371076653,126.490733650553
두가시영,33.3374160040754,126.842235848324
두찜제주일도점,33.5062324304685,126.540603199586
에이바우트연동신시가지점,33.4785221383444,126.490069011541
봉자순두부,33.2790270199265,126.720765331357
김준호의대단한갈비제주용담점,33.5094598694757,126.510085150908
팔공티노형점,33.4787140981577,126.487448644974
여인천하,33.4867417919178,126.491783845994
크레이지후라이제주아라점,33.4746084560432,126.543994227307
순대고을,33.4213432405687,126.273315152146
육회말투아웃,33.4884045005942,126.478565209903
움튼델리카테슨,33.5243834622524,126.861005448155
춘심이네2호점,33.4644351894197,126.485272852866
블리스찬,33.4734305400926,126.503430616499
록록,33.528893770098,126.878920813346
추자도횟집,33.5439605195993,126.673749800959
청자네식개집,33.2793272035643,126.720137269483
수연,33.2506138089002,126.562806151758
코츠커퍼,33.2447670012407,126.506601466036
개미와베짱이,33.4491753582837,126.559383031849
생방송호프,33.4169474689609,126.264048672665
송송숯불두마리치킨앤곱꼬닭,33.4962649072883,126.526529392206
숙성1퍼센트,33.4867393396115,126.485334733966
제주다올,33.5033021931325,126.464340595721
탕탕이,33.5032176473127,126.541201023959
제불노형본점,33.4887066278407,126.477495891874
송도옥,33.5153162328839,126.513585012344
이가전복,33.5177141802931,126.519031690571
한림협재관광식당,33.4153569821982,126.2615458537
다미진,33.3250891789452,126.844058532381
처갓집양념치킨도남시청점,33.496351016046,126.521695165908
제주성산난산느루,33.3990774122493,126.869056801306
삼우복국,33.240157941301,126.562468612276
이에이티제주대학교병원점,33.4671947544509,126.545528234836
플래닛제주,33.5045387127687,126.500576945774
5043피자,33.3866141473329,126.247111161341
만운성,33.4811275139143,126.491505478574
더벤티제주일도점,33.5051467820782,126.53720056239
서귀포램,33.2490742516248,126.560165596254
릴로,33.4926376987549,126.895095395113
오븐에빠진닭모슬포점,33.2169046440315,126.251633141405
십오야,33.5422676533876,126.664025543984
슈이치쿠시,33.5144682220276,126.575168472601
수타명가,33.4418600043694,126.289781104775
천하육회,33.4875472583332,126.490550248215
상효원소낭아래,33.3067006404859,126.585270489249
해품돈연동본점,33.4853104616254,126.490190629399
이모네냉삼,33.4145399414989,126.265856185372
서광우리집식당,33.2905813735398,126.300662289809
화진전복,33.5179521757572,126.519071921443
이돈갓노형점,33.4892615322797,126.474802630635
지원,33.5056724627644,126.545224979418
점주,33.5113654793184,126.51792444447
우도면짜장,33.5095547391991,126.943512239399
오르메맛,33.2507148060657,126.563631818448
서귀포홍가네삼겹살,33.2503695397013,126.565993136161
램스키친,33.4788433094845,126.490293926801
명태골제주본점,33.4941860253768,126.520040655635
히아담,33.4760837306098,126.486323730227
노가리앤비어서귀포동홍점,33.2570754664327,126.575094441404
매코롬,33.5541672594771,126.746843005687
조천연대해장국,33.5427490559133,126.636830449269
굼부리식당,33.2532177,126.5609945
협재해수욕장짜장면탕수육,33.3930959042384,126.240402536429
뱅인키친,33.2797294191673,126.276757340352
꼬라지,33.2270969118911,126.261374469366
현애원/카페이스틀리,33.4559335581619,126.908452346845
치킨플러스제주화북점,33.5149210947179,126.571374212473
윤정이네국밥,33.4077195673627,126.294013429682
자연으로,33.3783521477704,126.840395335137
한림미담,33.415332411997,126.263646238872
맥시카나대평점,33.2349088645923,126.367730412292
플로베롯데점,33.4906417333233,126.486603641414
법환어촌계좀녀숨비소리,33.2341735412752,126.5135733304
소담한밥상,33.5174326904301,126.521449152016
육화담,33.2472482860321,126.564011305823
아이스크림연구소동광점,33.5014281202403,126.54969164909
조근아지망,33.492548135774,126.430654155612
통큰낙지서귀포점,33.2470777794459,126.564497918753
윤가우동중문본점,33.2517272085058,126.423591448829
부가네얼큰이중문점,33.2513119846458,126.425104971272
가득한한잔,33.5113818829698,126.530910455009
제주한잔세화,33.5269618222469,126.855229681129
농부와꽃돼지,33.4991449420882,126.659027362556
산들바람,33.487633243057,126.714968614696
노을해안1014,33.2977137678144,126.168622223977
노형분식,33.4813206476157,126.484567804769
오현,33.5110347142552,126.529611634972
항골,33.4992182365871,126.45862897343
일기일회,33.4986925198817,126.528606137777
오프제주,33.4460484125826,126.910842378928
이공팔오,33.4867143646312,126.700232749436
꽃향유,33.457060322652,126.347316575586
스푸레무따,33.4674046129403,126.484691825321
훈이숯불갈비,33.4840361143708,126.487209749641
한스옥,33.2563988956333,126.505217511246
김원꼬치점,33.5165504925282,126.524165994343
물꾸럭식당,33.2201501690058,126.25139065029
주식회사장인의집,33.4250050884964,126.315564666034
넥스트도어,33.4115453020911,126.266844508111
바다애협동조합,33.2451369666348,126.570002473998
연동반점,33.4892369369581,126.488646998274
수산코지,33.434861666071,126.91073445542
모슬포흑돼지국밥,33.2195229013341,126.247889933285
외도그린포크정육식당,33.4879824905356,126.431930681977
하이로우,33.4954172317504,126.471452290934
미화해산물,33.260739106786,126.561704726201
육장갈비삼화점,33.5173064500679,126.587984906886
솜반,33.2524225667619,126.554825136158
옹포83,33.4047230847572,126.255055510033
듀크타코,33.2481035268696,126.561996690848
제주청보리,33.2557828458958,126.525468135785
이삭토스트제주노형점,33.4862348290572,126.484623699257
성읍복돼지식당,33.2532177,126.5609945
동글이,33.249860225979,126.563088260185
스누즈,33.2371490185082,126.308005524882
민수민수,33.4448860010767,126.296662995958
삼치고집,33.490637682419,126.480332442912
호맥아라점,33.4735845860548,126.544553747977
에스피오엘제주지점_한식,33.4710443678729,126.347091595607
백록귀빈댁,33.248931832559,126.561376405037
광성식당,33.2372485726383,126.335337844756
더플레이스제주신화월드점,33.3068460968274,126.317477950826
시민골,33.5079208831068,126.524978657649
어멍아방,33.3612984064916,126.841582477978
범섬족발,33.2357713190948,126.506499966342
성식당,33.4982762000247,126.497906448687
버찌,33.4827035739384,126.485885487645
돈치킨모슬포점,33.2200174755123,126.258758465276
주점부리,33.4367180375325,126.92216989641
서귀주택,33.2485470369722,126.561509991751
인생극장쪽갈비제주아라점,33.4766970702118,126.549758414459
제주협재흑돼지촌,33.4065952429321,126.261497020179
우리마식당,33.2532177,126.5609945
연남물갈비서귀포점,33.251820436552,126.509039825541
신례토종닭식당,33.313741606076,126.630470214284
미소담,33.4768312032252,126.536157172272
김녕가마솥사골국밥,33.5539953290384,126.748792246532
아라포차,33.4722387746159,126.545979887508
찐하오마라탕4호점,33.5075460583231,126.524805385408
선미뷔페,33.5156093672646,126.532512704985
나트랑,33.2807748020929,126.295751715771
탐나는집밥,33.4915741851961,126.495788524178
삼화배달통,33.516699586764,126.579107808362
공간,33.4829376213035,126.490095968439
청진동해물탕함덕점,33.5389557967581,126.669337582053
고기중독,33.4889070979503,126.493159037544
카페하루시다,33.2492808152358,126.308625434532
또옵서국밥,33.3290959155152,126.82458249207
노다지해장국,33.4696647147341,126.547360730212
가을,33.4911697826905,126.497554819557
참나무장작구이김서방,33.4164610025203,126.263977734523
롤링브루잉,33.5131091113003,126.529117791021
요기서고기,33.2520924648628,126.425424900824
월스낵,33.5573454648202,126.793950128813
제주창스닥,33.4855018086986,126.497082382257
호식이두마리치킨건입점,33.5141313851114,126.53741083407
갈비먹기딱좋은날,33.4997936091455,126.529168483553
정성푸드,33.4959434478109,126.530975329814
자리돔전문점,33.4845887155069,126.492249829586
화북조림,33.5194376144904,126.573148116194
전여친전남친,33.436926944886,126.27523596916
어멍정육식당,33.2648384363138,126.56200783991
도담스,33.5056724627644,126.545224979418
면사무소,33.4783920374537,126.35694267024
쉬리니케이크,33.5042779,126.519838
지오포카치아,33.4976694506363,126.448419806984
우가촌숯불구이,33.5098741883177,126.53244636021
세화오리촌,33.5261061250157,126.854930659431
다온까페,33.2493559248127,126.565992566525
신염천하마라탕,33.3253638265181,126.833641632382
주식회사아라리오제주,33.5176961171643,126.523315202543
337흑돼지캠핑처럼,33.5022267292015,126.545930571189
메가커피제주혁신도시점,33.2514431331821,126.50332471421
용수국수,33.3291162308008,126.165563763951
삼양백년짜장,33.5244747517586,126.584077180053
황구네,33.2520812690102,126.561567457952
이면,33.38860643919,126.226563739682
노군꼬치함덕점,33.5417109780903,126.666984138645
돈맨삽겹하귀점,33.4808180269302,126.404019065697
셔츠,33.4876534448296,126.49338218517
골든와틀,33.5128200981007,126.580988614107
정한토속삼계탕원조설렁탕,33.4848425149986,126.49472079955
벽돌집소곱창,33.3243098210163,126.832165490632
함돌,33.541728546636,126.664042272729
뚱아저씨화덕피자용담점,33.506279160753,126.508449235289
제주도강어멍,33.5053994775625,126.538597009543
여누카페,33.4320126984516,126.673827341374
깜돈흑돼지,33.4904862987356,126.495272846571
봄봄칠성점,33.5147265486801,126.525686935681
별빛한잔,33.2552551089174,126.572263716491
소동잡화,33.542147687617,126.672009160425
황칠이야기,33.4030985749043,126.252577143123
제주보라,33.4834023934689,126.537459981367
커피가게&쉬고가게,33.3250928274731,126.842306173512
슈닛츠,33.3159561765484,126.342365496621
오늘도화창,33.5551628851414,126.7949813296
중문흑돼지천국,33.2397576671042,126.436907567928
살롱,33.4840247638979,126.487582633385
로바타탄요제주,33.3102637773483,126.333027199918
돗도구리돼지머리국밥,33.257221871715,126.575801808374
미친포차,33.4834543433421,126.490385597432
미르반점,33.2440683618366,126.534658842912
메밀가,33.2600140046537,126.571400960155
성산가는길,33.4923692478817,126.437402375195
해산물한접시,33.5004668315497,126.911572127789
단당류,33.3181423138308,126.26960955514
송가네참숯가든,33.2822662955124,126.700762528047
팔도실비집삼화점,33.5164407964456,126.579894802367
구구단,33.4787925484396,126.491149338305
해원담,33.5247769527354,126.586226932696
육회한애월,33.4645824389414,126.317335135326
황김밥우동,33.480184527057,126.402493155488
코삿호다,33.3655516826096,126.198389630766
제스펍,33.2552061783387,126.571852619464
한라산뷔페레스토랑,33.2468724608075,126.560724197249
현가네곰탕남원점,33.2787488759061,126.719807852193
도리화과,33.4690867320839,126.509564780139
장어랑,33.5300111768956,126.838849637359
우도상회,33.5144122863357,126.949309604703
해주소반예래점,33.2410133724771,126.381991323636
황토기와집,33.2639040293275,126.395300993331
미스터킴팝,33.4839891274453,126.478992029524
시옷비읍,33.4600697275086,126.930266051563
노랑통닭표선점,33.3074314289258,126.808487441882
디어브리즈,33.5547733474238,126.794082549073
금산,33.2522001496998,126.568359298
섬지코지올래맛집,33.2537049911735,126.512493855074
엘에이본즈,33.4891840736719,126.486916539874
도남정,33.4967337067103,126.526993979762
카페파스쿠찌일도점,33.4855093,126.499037
골드문,33.4896147988504,126.49319117667
풍류라운지청,33.2558432905296,126.497722465936
하빌리스,33.5046478728868,126.517174660323
펍벙커,33.5137771813108,126.524536362586
육회포차,33.2510207685969,126.560927611809
들렁모루,33.2804461495848,126.544597553902
너야말로진정회,33.2511994415057,126.436148387065
순이네밥집,33.5148355612007,126.562816681419
영지식당,33.4665995623977,126.931921030781
교촌치킨아라이도점,33.4939357759254,126.541550425535
줄라이앤어거스트,33.3277369977504,126.220123117059
더노벰버라운지,33.5069434755533,126.540811138544
안트레정식,33.4770745430911,126.520659622177
하쿠나마타타,33.5545104476823,126.797529592384
라비에,33.498703623205,126.529796175028
홍대감더덕토종닭,33.4671297987709,126.773582499718
예산가마솥장수촌설렁탕일도점,33.4993557739533,126.545091533185
아리나블루문,33.4788433094845,126.490293926801
옥이네복돼지,33.4903881585231,126.487899600947
밥먹을래닭먹을래,33.5175778323515,126.623657194575
막창먹는놈일도점,33.5013319639187,126.543690679077
한두기식당,33.5170282740016,126.515682299327
매우릉쭈꾸미,33.540408431686,126.667683040418
공푸마라탕,33.487109509357,126.487831635603
흑마가든,33.4772956863802,126.489342885402
빽다방제주이호테우점,33.4968255749991,126.451509494444
성안식당,33.4648410017614,126.320105511003
또와리,33.2383006919363,126.47458763432
청아돈,33.4656541791352,126.320671655181
따봉,33.2493588994273,126.563159538635
소문난갈치,33.5127041625681,126.525091041152
조선양평해장국,33.4864329779376,126.490505770821
전이랑국수랑,33.5270610175737,126.855864757809
애월가,33.4829289588531,126.413325187557
이가곰탕,33.2285076528288,126.307730075625
론푸드차이나,33.2512543904087,126.426984641099
일오삼삼,33.4848632453976,126.524475879506
연해루,33.4964885254089,126.52999302522
헤이브로,33.3251735105523,126.843794820226
제주어멍밥상,33.510714240113,126.540772602233
우도클라쓰,33.5084680277384,126.944087673493
철이네흑염소,33.3271874359119,126.829566826363
마이티커피,33.4882346010184,126.538142091042
꼬리에꼬리를무는닭,33.4707182664071,126.776455451069
회춘애월점,33.4889960920155,126.390898407423
김복남맥주1995서귀포혁신도시점,33.2521090979594,126.508869949106
스팟,33.5143807054311,126.526419219517
시종일관,33.4252573775645,126.26808423474
셀렉토커피도남점,33.4956089366275,126.527434301154
효자동설렁탕연동점,33.4880215501141,126.497430645634
서오릉다슬기제주점,33.5010687660655,126.53086525525
동양식당,33.2515875259259,126.509674575568
솔채,33.2616848704607,126.581877962564
록담,33.4946188059664,126.542399407874
제주이와이,33.4796283483783,126.397522812079
김준호의대단한갈비제주아라점,33.4764282385213,126.544754472281
해피데이,33.5032176473127,126.541201023959
문세끼,33.5117701717155,126.502860308062
삼복정본점,33.5003590892549,126.51886575853
위드샌드,33.4936827235436,126.527918022227
덕수영애네,33.2587568344169,126.304222934836
돗고기축산유통,33.2583777662194,126.51302413101
한림칼국수제주함덕점,33.5395367584215,126.671632290371
탐라는족족,33.4638749056169,126.320441999173
카페봄봄,33.490990366306,126.431104447914
진향갈비,33.4946034900585,126.527484205746
활주로,33.4838846876034,126.482253639068
스틸,33.484404905282,126.490805463481
신비섬,33.4489693380023,126.915836859071
구남로7길,33.4927305790627,126.534863352285
테네시테이블,33.522028006062,126.860741290826
주식회사호텔레오,33.4897526743216,126.488260365404
연동고수김밥,33.4781287900141,126.493326815004
디사이드온,33.4963597199329,126.908300272644
복돈갈비,33.5003557939386,126.545993609618
막창먹는놈구남점,33.4878584630203,126.533258935578
트룰리하우스,33.4860638285211,126.489729678932
제주어촌,33.542472043012,126.66807017805
텐보이,33.2361679083229,126.297906417602
남도밥상,33.4391167361658,126.877470289124
오르바,33.2404012394166,126.60956292739
주식회사올바른식단,33.5181355597789,126.520607216332
고금장뇌삼계탕,33.3426996043421,126.82614743753
은어의집,33.4902609434629,126.433536619818
세화리한식뷔페,33.5249970309012,126.853978863575
금백조로가든,33.4393064276085,126.862905688934
월궁,33.4497502376168,126.558577025497
별연동삼계탕,33.4854595616844,126.497847640339
이츠양,33.4856965490036,126.489452187773
양푼이막창,33.3268811139447,126.833729504762
루스트플레이스한림점,33.4087042112099,126.264269558002
카페베네중앙병원점,33.4919035890934,126.47010931978
김준호의대단한갈비일도점,33.4999008157162,126.549367780074
리얼한림점,33.4142028501268,126.264792551678
효자동설렁탕이도시청점,33.499025407035,126.531272942466
다쏘니,33.5100161014661,126.506031353504
일호생구이,33.5077354751002,126.509717213484
달페이지,33.2597116528763,126.413975415924
메종스시,33.257160617175,126.571688550656
경성살롱,33.2456451463544,126.523118173978
미식가,33.3082833039173,126.164596588903
예솔원,33.4854394214352,126.521469159772
제원삼계탕,33.4885273134515,126.489242004001
마마식당야식,33.9627788607112,126.295142720617
포차바다식당,33.526914512466,126.576115213283
그랜마스서귀포시청점,33.2543506694479,126.558864496565
늘장터식당,33.2509762770028,126.573875956943
뮈르,33.2449765658929,126.387593166327
이여도산아,33.5267946120854,126.855647209425
하오츠,33.5467190922186,126.699197171317
인그리드,33.5024801953045,126.456736657198
소소구이,33.4862794203375,126.49118206175
에스홀덤펍,33.246350913175,126.564274362406
피자탑외도하귀점,33.484635979551,126.415509698966
제주원정담,33.4859231269052,126.415499116314
온가족,33.4864719315906,126.431391795836
구엄애초밥,33.4841107382281,126.377485994239
기대만족제주점,33.4969866972694,126.537503759732
풀베개,33.2854606588398,126.303193423817
봉이네한림,33.4167916465096,126.265093266614
황가네흑족발,33.2520056653058,126.518340632336
후니참치,33.4862429287069,126.484338409577
맵수다,33.4887412101463,126.489010912821
카페봄봄서귀포점,33.2531918900723,126.569462523079
똥광,33.483735711352,126.497868777772
범포차,33.2489411256242,126.561045961866
불닭공장노형점,33.4843610127568,126.482991276856
푸라닭제주건입점,33.5135446739441,126.535110526378
어하영,33.5171289153762,126.538114752105
그로우,33.4910050685552,126.543728495787
텐저린키친,33.2327981183602,126.505776498308
미니바,33.4872322543905,126.490531325976
롯데리아서귀포혁신점,33.2542782376694,126.507116557904
참치코지,33.2527666185508,126.504044472277
한림국수집,33.3856296126064,126.224763407767
강촌닭갈비,33.4976673672422,126.529354110513
돈내코장원식당,33.2927393785699,126.594901388384
마리나,33.4931964334443,126.497212116726
수복해장국,33.485822081499,126.474937336633
엄마손국수,33.2633689572053,126.61771434402
퍼르,33.4869562536919,126.531590503732
소림김밥,33.4790502794765,126.490000288062
걸어가는늑대들,33.5425963855751,126.672306353486
우도이야기,33.5196095926425,126.949365237632
파스테이스,33.4077125000935,126.266819089137
대마족발,33.4907614382781,126.492242859506
아워홈네오플제주점,33.4730423422334,126.485292111753
김준호의대단한갈비제주첨단점,33.457516978807,126.574118570771
덕승식당중문점,33.2524232885161,126.426698757307
외도아나고,33.4908621274526,126.430449553125
꽃돈92본점,33.4972388039755,126.537992805761
수다,33.4879533666683,126.493130376546
담또와,33.5563681799039,126.793380743781
배가면옥,33.4942587831315,126.515822562269
이앤제이커피자판기,33.5064951814238,126.537363752746
레스페베르,33.5045474532686,126.520196237013
조은수산민물장어숯불구이,33.4888739228725,126.523942639075
시영통닭용담점,33.5086742567932,126.510435594611
양촌리마을,33.4793808029488,126.481460710005
제주도의푸른밤,33.5443244504998,126.789234245878
야미1999,33.4838535274831,126.478263241161
정실마당,33.469041072492,126.510421670414
사랑방포차,33.413601379151,126.264423820415
주식회사산노루,33.3300016081703,126.213314639143
숲숲포레스트,33.252467761762,126.510057694239
만금식당,33.2508652925842,126.619797153778
월정마을식당,33.5554614547481,126.796159343908
야시장,33.5101604384386,126.532683969398
조천밀밀면,33.5041065238172,126.635589193932
숯불애,33.3170957029721,126.270294612231
커피로카,33.5066201183038,126.540433904505
나무꽃,33.5429579851292,126.66289127166
바다사냥,33.4635890004983,126.93375457334
일대일치킨이도도남점,33.491492052715,126.528871127149
편안한맛집,33.5542355504977,126.749388870541
더카이로스,33.4493552087057,126.400162450131
디피일오구,33.2395324407175,126.437884208794
가비,33.5112482311709,126.539382550288
손심엉,33.4917305147209,126.543025258962
오미정,33.5026759586571,126.519110685884
월정리유메이우동,33.555326063986,126.794757821225
그릉그릉파스타가게,33.5235924871137,126.854872421741
돌담집,33.246009537669,126.563420744525
네네치킨남원점,33.2812009539568,126.722097023236
아시바람,33.2609842073214,126.555896243615
가야장수밀면,33.2659329799935,126.585078938845
김녕미항,33.5582518888597,126.734515429568
귀동이네,33.5210770392537,126.56354124884
표선정식,33.3273527049929,126.834231365375
글라성국이네,33.4910839504672,126.427307050818
주식회사일품순두부노형점,33.4848814871301,126.466815748283
다람쥐식탁,33.407791969007,126.265758479637
삼화가츠우동,33.5167729193151,126.579462652476
김준호의대단한갈비제주도남점,33.4953067540286,126.526781032903
중엄집밥처럼,33.4737418523917,126.373475711685
자담치킨외도점,33.4848288646888,126.431133973796
호재옻닭,33.2800499321553,126.564127619304
백채김치찌개제주삼화점,33.5167614862696,126.581410921665
한강수,33.5069411195773,126.525048046684
청년순대국제주동홍점,33.2572452501787,126.570477390466
밭담,33.5566432216402,126.803550426963
보건,33.5005144103988,126.532735163433
진이식당,33.4512486301313,126.551572875599
삼화왕갈비,33.5147710254876,126.574079892966
호루의한끼,33.2787725510706,126.583092792994
롯데리아서귀포점,33.2486974657711,126.562749700412
바다잔치,33.5176447109336,126.516841880281
칠분의오,33.5585949403725,126.813484723646
애월맛차,33.4713828203539,126.41871589683
김녕대성횟집,33.5570245950247,126.759880601197
오야짬뽕,33.491604445055,126.591504732602
오태식해바라기치킨노형점,33.4869210542978,126.473731196441
봉끄랑과자점,33.4943606795227,126.945005720304
평대리서동청년회,33.5333232073935,126.84235905229
남쪽,33.2408638676605,126.562838702676
노가리앤비어이도일동점,33.5026729670434,126.532916955326
세화마을협동조합,33.5269911416087,126.856018059397
삼다미가,33.2376698869796,126.514890834134
426호프,33.4893383011774,126.535095509069
71포차,33.2217431232675,126.252272365542
진분홍식당,33.3881391947943,126.229557498522
코코리코케이크,33.2516581182729,126.50898772235
제라진국밥,33.5076478809963,126.525143200379
오라오라,33.259010030439,126.555904301136
용우동서귀포점,33.2477229570831,126.564026332405
깔루아,33.2339097857351,126.309905224696
내손에쏙물회제주,33.5366001544929,126.84031754514
수제햄고래부대찌개제주함덕점,33.5411948028854,126.670043963904
까떼커피,33.3254601271576,126.842429560447
가건물,33.3246748262147,126.836580770094
영희네국밥,33.2416007142382,126.565292149188
속골계절음식점,33.2408618985596,126.526063038218
나리꼬모제주점,33.2591664582282,126.427409805553
와인다인,33.24644613606,126.561839281426
동백국수,33.4985170072033,126.486661005371
갈매기팸,33.524772479016,126.860583387615
오바,33.2215295862873,126.253422621463
아라오리,33.4543514990814,126.550331272632
설빙외도일동점,33.4879958848821,126.432158167632
볕이드는곳벧디2호,33.4705945023669,126.48835998234
신전떡볶이,33.4909555051648,126.538476175943
제주전복김밥,33.4365044529607,126.918120850314
제주오션스토리,33.411541771184,126.898892099297
법환동커피,33.2370882437074,126.511894061955
불만난고기,33.2585280764123,126.559698077427
푸라닭제주한림협재점,33.4143484499746,126.266543047881
함덕면장,33.5437603052107,126.672804133701
다섯시갈비,33.5032142110811,126.541978052225
신양장어,33.4898478370283,126.481525519608
별난아재맥주,33.2208467416897,126.251253419385
표선장수고을,33.3325309867712,126.8168104068
형제돈,33.4643338369177,126.321071786747
7번가피자제주삼화점,33.5211070106688,126.587114797654
피자헛서귀포점,33.2549788274856,126.570452422788
보롬창고,33.4978173425876,126.910893841686
월하객잔,33.5548773615025,126.793956204045
범벅,33.4843639222961,126.381126047757
주아네,33.2795326826349,126.719216347894
오늘은국수내일은국밥,33.4856297423807,126.483901971616
옵서예,33.4982089912351,126.532244889798
올레길다방,33.2483895804307,126.566309388478
스텔라제주,33.3864717704688,126.229422497988
옹포바다횟집,33.4039237589474,126.251703028222
순덕이네식당,33.4612817421469,126.484723751897
미향해장국표선점,33.3169597481094,126.828342609854
향구식당,33.4159267,126.2619277
감정,33.2563555071882,126.574670166281
우리들의별포차,33.5424494576784,126.66580739806
오스테리아서우,33.5439910672941,126.674188765741
월정샌드,33.5548589816349,126.799677402634
서문뒷고기,33.5108115467964,126.520364546167
던스페이스,33.5195141272931,126.493652700541
한라봉과은갈치,33.463616874275,126.910645936592
탐라정,33.4952860729607,126.536865747522
오조파스타앤피자,33.4509772600201,126.915620990984
띠띠빵빵,33.5081973963631,126.967048162382
굽네치킨한림점,33.4142287035958,126.262813773474
마마,33.492215354544,126.493258344827
포포우동2,33.463216978403,126.309713460168
더블유에이,33.4805150856338,126.491291615887
카페쌀쌀,33.475160932599,126.364194729594
114화교반점,33.4814110255537,126.473636591662
올레승돈,33.2470940324508,126.562270201582
육장갈비하귀점,33.4837862767239,126.412221085898
홍해도,33.4871833420373,126.488135275672
오거리포차,33.4955299285812,126.526788965566
금능상회,33.3894273616147,126.226813982319
표선올레식당,33.3242629903517,126.830478758939
불막열삼제주삼화점,33.5160408864389,126.578949545336
해운대밀면,33.5209660407716,126.578692316799
한라봉신,33.5143337299711,126.95711646959
투썸플레이스,33.4621253001528,126.31097031589
우정회센타1호점,33.2495643995877,126.563036507836
애월포차,33.4512491269249,126.307104837052
석인장,33.5098189541623,126.535980275612
프레드허쉬,33.2448161602684,126.564841876687
우당도서관구내식당,33.5153526419118,126.548890622496
라움이즈,33.2808781260854,126.288925768172
메가커피중문점,33.2516422013438,126.423964583428
망고홀릭법환점,33.2342413250837,126.513245833187
어애랑,33.398969192571,126.24687822115
제주멜즈,33.3990749665283,126.246316864932
금악리자양식당,33.3587410653241,126.296693210056
북촌자연산횟집&직매장,33.5514096934615,126.696270121646
빅브라더,33.487137521463,126.491613034677
맛의고수,33.4615504086533,126.311871856243
모리노카메,33.4889878623838,126.535940331736
이익새,33.4073686464389,126.265540701444
수돈가스,33.3974411276973,126.244348386356
더웨이팅,33.3177313699275,126.82854385312
미엘드세화,33.5245209019159,126.861843365878
카페봄봄조천점,33.5351318462862,126.623034563497
대포면옥,33.2501955859545,126.433809205648
표선풍천장어,33.3251061438731,126.832770671505
연동계수나무집,33.4862155279953,126.493412292057
멕시카나아이브리조트점,33.28840976042,126.49687617122
카페청굴물,33.5579920949384,126.751295299024
세화바당,33.5241906318973,126.85404835889
부가네얼큰이하귀점,33.4844379811391,126.415909238195
봉덕,33.5548600658528,126.797407093586
폴개촌,33.2870223485759,126.74621570106
제주홀릭카페,33.4567141560659,126.441658444549
제주황돈,33.4546390676114,126.486574764023
팥,33.4419050624216,126.2963247447
안녕제주,33.5388464931653,126.675701475163
후룩,33.5563261913932,126.806912780434
서부식당,33.4168249105598,126.263906395341
지그라나다,33.4994210873699,126.4641235537
메가엠지씨커피제주연동점,33.478727727142,126.487604890813
꼬란,33.2496388179107,126.56761226101
주식회사시연,33.4968762382124,126.45175259037
함덕쉼팡,33.5440192845446,126.673982255781
대박,33.4875882360865,126.495963339044
호랑이네,33.5552978353222,126.795242577089
플라이오조,33.4610345261196,126.910954510107
덕분이네밥상청춘분식,33.5525696036141,126.744020710355
시카고피자,33.4509059465567,126.914966905728
꼴통집본점,33.4867511159817,126.491573221362
대들보,33.2358893524017,126.514776210042
하꼬네,33.496324564517,126.530003273318
연한돈,33.4854733319093,126.497352399889
쏘주언니오빠포차,33.4976912057211,126.529506145203
거마가든,33.4801434486482,126.554104893912
당포로나인돈카츠,33.3257067775395,126.84361472289
2투1카페,33.4890953005881,126.493499683102
종달삐삐통닭,33.4966535848118,126.909077784667
인사이드지미호,33.2521431311808,126.422698263806
경복정,33.510860247759,126.541318799453
이듸,33.2200254557715,126.251297423197
물회야,33.4488422847833,126.915415588177
장원돈명가,33.3254532557137,126.843914288363
주식회사소담오메기떡,33.5120837534795,126.527915198232
술이달아,33.4880038655209,126.479989005856
협재밀,33.3978584613703,126.242941320064
추자바다숯불갈비,33.9597003133617,126.296249566738
해저3만리,33.2477330421686,126.559799107644
국수몽,33.3460631735553,126.184678753246
꽈페제주협재점,33.3943208781822,126.241166505193
메종드혁이네in표선,33.3246500121261,126.833779924085
정박사제주냉면,33.4981355626657,126.537808544052
화산2020,33.5158104960654,126.513840676843
대수굴식당,33.5360153995545,126.839358069259
미쎄스올리브,33.2475197343177,126.511803892722
제주로움,33.5525675075398,126.792194313245
렐레펑테러블,33.5534288629756,126.790199802935
엘코테,33.494349051412,126.544406428074
버거요제주본점,33.4463909616099,126.296446510197
월정오름,33.5554417231883,126.796551148073
흑심가,33.427396644009,126.277755536857
보목어촌계식당,33.2396469170496,126.607924124138
의귀리부부막국수,33.311192510349,126.71766319148
연동당,33.4781022421915,126.491511533617
사랑식당,33.3471440806819,126.182976324778
홀리데이홀릭,33.5407214668336,126.673410979038
모스트,33.4837509193485,126.487139234158
삼촌밀면국밥,33.2551503363611,126.575789926872
우리동산,33.4085639525292,126.258791031363
물팡과허벅,33.4855928250237,126.485149024299
식당민남매본점,33.4969596066582,126.519555197539
평대식당,33.535016814056,126.839585463324
황제중화요리곽지점,33.4512491269249,126.307104837052
미코,33.4784683510418,126.489377426957
카페코랫,33.5042779,126.519838
지중해그릴,33.514949986767,126.52717902455
용철이네횟집,33.4856073160808,126.413727294322
금수강산바다장어,33.4156291127135,126.26293073632
모노클제주,33.2729117323805,126.684516007179
송화정,33.4893193580518,126.52261917413
논짓물계절음식점,33.2368000192679,126.388672010536
칠돈가유수암점,33.4232911018556,126.407249348411
어반정글,33.4369518557948,126.921075912791
범섬포차,33.2350929871274,126.50687735811
신수성,33.4965979406042,126.537361628246
윤군,33.5425920781594,126.673166857041
문치비서귀포아랑조을거리점,33.2467764047145,126.560255759894
세모,33.5531355737459,126.80815316195
국수와의미팅,33.2498445157294,126.56759665419
미디어라운지배트,33.5111816152734,126.521451385636
진질해녀식당,33.4423676053274,126.278816397622
똣똣,33.4052906660227,126.904920389741
우도동글이네,33.4977310903361,126.957984813417
이치니치,33.4651109439747,126.320189137017
귤당리,33.3629354142497,126.196751796738
와이키키제주,33.4705945023669,126.48835998234
그럼외도,33.4942810450906,126.43399263049
인정왕김밥,33.2908439919312,126.302343212257
오로섬,33.5190055045566,126.493379033372
제주민족,33.4515677292843,126.91392177768
이호포차,33.4969631522189,126.452262440617
본까페,33.467803939554,126.332023601928
굽네치킨애월점,33.4668981558964,126.339213826957
색달계절음식점,33.245179308007,126.413896762712
카페와일드가든,33.2467817950762,126.573821951038
김북순큰남비집연동1호점,33.4860627198041,126.48946047627
화리,33.5251803090286,126.583666252638
한성식당,33.4631657859783,126.934948287337
오아시스타운,33.4993379447553,126.536100341612
광장가든,33.4643642391121,126.321305728465
맛있는아구찜,33.2518833596209,126.42503062032
금악국수,33.3567725093397,126.297791146277
정오어멍네집,33.2721269655255,126.319031476449
어진이네물회,33.5181538265684,126.488674112236
막둥이해녀복순이네,33.4453839828327,126.899149797696
제주베이통갈치구이,33.4942629921119,126.426536636989
보목보일식당,33.2394603020884,126.606703401527
미락육회막국수,33.4857720019699,126.534964142633
제주침시술소바,33.4834290193081,126.479347431365
솔바위,33.5038991811915,126.537544591122
김덕규옛날통닭,33.4749594573809,126.548503932647
가마치통닭용담점,33.5102312115251,126.513616910097
제주그때그집한림협재점,33.4098440402921,126.258974414117
이디글라,33.2499114538854,126.278912675247
메누하,33.4639252553777,126.312958038598
경양카츠제주점,33.4907233263957,126.538205062782
센잇,33.5119206799242,126.523611537002
다카포,33.3245926677225,126.836908494144
강정통닭,33.2493503649128,126.562475820762
국밥먹고가자,33.4854622913087,126.49767579234
제주돌창고,33.3371502390313,126.233585164455
100번지숯불구이,33.4757283808387,126.460800603307
윤슬,33.5578268021853,126.754350551886
던킨도너츠제주한화아쿠아,33.4325290457068,126.927210594909
토평원,33.2764433176413,126.581357867712
버거307협재점,33.3929768879297,126.240239448761
악근천계절음식점,33.2343781458275,126.489921124099
주식회사하이드어웨이,33.2295888208757,126.308547621213
주식회사희락원,33.2832142701782,126.349917297658
카페스탠포드,33.4716914513885,126.352802187887
서림향,33.2604600155203,126.524164877731
버거오클락,33.2911078803052,126.283576127015
호탕,33.4641695252523,126.318845201627
탕후루에꼬치다,33.4879744224051,126.430722606957
도남운선횟센터,33.4956084181832,126.526047431044
토담이네,33.4625907066295,126.44935073664
세화피크닉,33.5243369517203,126.86133793501
자담치킨삼도점,33.5045967310311,126.516752855938
카페물썹,33.3523118131116,126.864913072434
바비킴,33.511039148043,126.538049706768
오륙도식당,33.5140563825856,126.526862064396
림스테이블,33.4779931575646,126.449921217097
서작가초밥집,33.2448161602684,126.564841876687
금모래흑돼지숯불구이,33.2478691663058,126.335656738087
섬고래,33.3884674432283,126.230048235596
밀면맛있는집서귀포점,33.254022531436,126.511892966425
신토계,33.4961714937907,126.493622586696
호남,33.5151139602271,126.561283003745
탑동경이네,33.5170669395146,126.520802335141
호랑가,33.2334871681626,126.304396095824
이디야커피제주남원점,33.2782954106743,126.71959268236
삼겹살땡기는날,33.2500297358775,126.560836527302
돌담아구찜,33.4888027427032,126.529906287801
백선횟집,33.4990886190546,126.524907774974
달고래키친,33.4886019386899,126.388888078314
청오돼지들의세상,33.4892782819209,126.479155762612
꾼2,33.4897694404027,126.480373137748
서귀포해뜨는집,33.2507092618608,126.564056251862
백년손님,33.4957539918436,126.532183410982
왕돌식당,33.2337414694649,126.487543038397
표선수제돈까스,33.3283586613762,126.83478033994
대향연탄구이,33.2448296082379,126.56379046991
김밥노리터,33.2507148060657,126.563631818448
고향역,33.3866142003354,126.224050615127
대포어촌횟집,33.238697709214,126.431060770393
뚱이네민물장어,33.5094413276397,126.510891594263
제주그리미,33.5049375681198,126.707424420724
더헤이븐,33.4866417482259,126.48828630178
안트레오젠,33.4477734971335,126.304573350403
올레길해녀의집,33.4760512560158,126.909940100662
콩창고,33.4039407552516,126.263828245081
갯동산,33.5329057825249,126.844438776201
씨리얼제주,33.414326442783,126.267426619821
원꼬치,33.2489464868967,126.563902649367
금능맛차롱,33.3911299773802,126.236257966788
샐러데이즈제주삼화점,33.5195540987018,126.58128358834
남문숯불바베큐도두점,33.5033359446106,126.465684331284
마키산도,33.3630645795358,126.363952880522
설빙제주함덕점,33.5414402422319,126.667928771694
추사장추어탕,33.5012982758085,126.526707215093
카페블루하우스,33.4725846279967,126.539988927564
샤르망,33.2462816674213,126.563014965555
코코라이브,33.4862388336619,126.484481000892
한치나라,33.2349583384794,126.506754731461
바닷골제주함덕점,33.5416395736119,126.66758874948
밀팟제주,33.4841757291511,126.529826809688
비에치씨협재점,33.3940493465761,126.240596093383
휠스,33.5024655401319,126.505011520593
오아시스인제주,33.5135113775276,126.548732595469
홍쉐프의중국집,33.2348463274431,126.488990142702
올레집,33.3330392236683,126.255974397971
장작불식당,33.2491537672161,126.56930891691
전설의감자탕앤왕돈가스,33.3271874359119,126.829566826363
국수대표,33.4845293370512,126.479308031363
논지물횟집,33.2365549516957,126.387772371203
왕원비삼계탕,33.4878336116691,126.430275161708
월드컵흑돼지,33.2430051049689,126.505120124339
자담치킨김녕점,33.5565058074652,126.755818607363
비주비주한림점,33.4059300234896,126.254887510733
제파,33.5546069717983,126.793955230712
제주설원이네,33.4895935118854,126.493872744012
금능길,33.3889146621847,126.232833929203
성산갯마을,33.4676258630897,126.915509979418
주식회사전철우고향랭면,33.4791362754443,126.470728449334
수목원집밥,33.4895517566671,126.495351114709
관촌밀면,33.2492695156234,126.559367757048
랍스터빈,33.4843639222961,126.381126047757
주식회사유동커피루아앤티그리지점,33.2407897812798,126.531636400139
까망도그,33.5578691058588,126.754997097578
제주씨푸드,33.5241118670363,126.58978325503
동광국수,33.3150017787371,126.344301419875
별난닭곰탕집본점,33.4121327729597,126.269089964575
대손가,33.4836091495136,126.479367011789
더이칠하나,33.2424688428425,126.385427151526
돔베고기닭칼국수,33.3228563272346,126.26195025288
곽지과물식당,33.4507837937137,126.305537194637
딜레탕트,33.5350586524785,126.62843947206
예진돈솥밥,33.5003405675873,126.521836800654
김가네흑돼지서귀포올레시장점,33.2500206029287,126.564238124138
오알,33.2443518765921,126.534646074041
청정뷔페앤제사,33.4597644357578,126.538384865244
모다드렁,33.2797896644093,126.724218124056
따뜻한밥상,33.4465076902958,126.305043216684
새재암식당,33.3941108694149,126.241058591103
함흥면옥,33.5133617,126.5239431
동문,33.2478524977066,126.568102536006
삼화포구2,33.5287760503145,126.58912447612
어장관리,33.491463593892,126.497572706647
벌크커피삼도점,33.5017717468352,126.516422135151
여기고씨네,33.3007193283389,126.76665926637
동빵제주동문시장점,33.5121142476383,126.525937330233
기똥차네,33.4649368441624,126.932801095547
쇠소깍가든,33.2642052421165,126.62437808262
멕시코니치킨,33.2213973417437,126.252390301122
모닥치기아라,33.4753403120127,126.545967154417
제주길흑돼지,33.4101437995167,126.90802717215
아랑아랑,33.24887582135,126.559177654255
제주냥이,33.5335477817983,126.839679470332
자하연주식회사,33.368677043462,126.814642228496
스시회관,33.2929301646187,126.23379382564
투다리한라점,33.5211131651712,126.565893678462
오레노카츠제주화순점,33.2462610686714,126.333571909573
고향모밀촌,33.520930611742,126.583197169
트라이던트,33.4624106806065,126.312957401736
제이홍키삼스,33.2331058957643,126.36702178374
바미아일랜드,33.5550324974311,126.797325497007
55돈,33.4910828063328,126.430678487236
아라연,33.4320126984516,126.673827341374
맛존디수모루점,33.241224927921,126.531306609528
백곱식당,33.5264724623392,126.856493544092
황궁식당,33.2368629445486,126.510453209473
김준호의대단한갈비제주월랑점,33.4913083508463,126.480369433886
바다나라횟집,33.239695869514,126.60766478707
플로리디타,33.5268830580751,126.855414539198
황제중화요리,33.4610040435338,126.435826777239
탐나치맥탐나치맥별관,33.3221153950566,126.841893223857
다래가든,33.4632199559156,126.53138216111
수정식당,33.2210368317109,126.252698014402
제주친정,33.3260313399252,126.252575837818
술술바,33.4491251929408,126.30449986065
갯것이,33.5033889798989,126.537112630049
마중물,33.5068625654233,126.519732519041
파프리카가든,33.5015158048792,126.531397161897
통근막창,33.5119561278387,126.505282204926
제주설심당협재점,33.395917534833,126.242869475524
노형삼조삼계탕,33.4872005757251,126.481071194855
엠케이엠주식회사,33.4903592926564,126.477550097765
홍당무떡볶이,33.2476775954988,126.561254548209
약선명가,33.484973505967,126.410762999499
돌카롱중문점,33.2557895445742,126.424348059577
소우주,33.3221153950566,126.841893223857
대동강초계탕,33.3070378338883,126.804299461781
협재술시,33.3924678733411,126.241097699131
늘여름,33.2470353452377,126.561428156277
김녕장터국수,33.5565058074652,126.755818607363
올레차이나타운,33.2363463682999,126.515002215193
인터포레스트,33.4573217473339,126.772445235354
벳내린,33.2864247687989,126.59949777337
설빙제주삼화점,33.5156186413749,126.576745079557
심바카레,33.4482886134157,126.302269509243
돈오름숯불갈비,33.488624294377,126.49296700359
청룡식당,33.264418943875,126.56214580771
가파도식탁,33.2425638697016,126.565198323998
제주설심당모슬포점,33.2208653521762,126.250720451777
청춘관숯불구이,33.2353164752413,126.506984573332
주식회사드림랜드,33.4848822092862,126.482383167465
평양면옥,33.2449478332236,126.562461702938
면도롱,33.4020173470624,126.251044859632
토계촌,33.2550618985115,126.539934931612
랜돌프비어제주연동점,33.4877566343982,126.490556661861
봄봄회수점,33.2632671102237,126.444924491721
공육사,33.4705945023669,126.48835998234
어부피자,33.4434387868009,126.892636340781
쟈니,33.5101466379648,126.504109676355
빨강궁전식당,33.4594356295815,126.335299524232
카페훤,33.3961942759463,126.242477766238
제주고메밀면,33.2355637677886,126.309135742046
온정메밀국수,33.5249970309012,126.853978863575
심박돈숙성흑돼지,33.460887818926,126.931507163082
함덕88동,33.5430409981123,126.660868493153
썬셋비치,33.3954047120351,126.24213110276
오지힐제주,33.3628309094817,126.193482080626
문워크,33.4889581880804,126.490337867313
부부키친,33.4427798682018,126.88822519642
궁중삼계탕,33.4999696557495,126.528306072075
곽지국수,33.4487694772877,126.307763295678
족발왕,33.2152061955148,126.257912827206
송탄최네집부대찌개제주점,33.4900742949287,126.476566170637
푸드도란도란,33.3629873838022,126.358429593129
광주식당,33.454655620078,126.910934463109
야뜨리,33.2422230973303,126.566709591246
모모,33.2541091278083,126.505286219726
단골52번지,33.555326063986,126.794757821225
스시오타루,33.4752069177004,126.549760312404
경풍식당,33.4969505235247,126.473178415221
데이빗보이,33.5046332900341,126.516510075617
제이엠그라운드,33.463740353985,126.339451097516
진산원,33.4947105563285,126.52799336574
카페모들,33.489064760104,126.389151676879
뵤뵤,33.3925462830645,126.263068455345
일이삼식당,33.495738232997,126.525643079396
화수목야키토리,33.235778962563,126.506335769561
톰톰카레,33.5373543482504,126.837481617259
청호정,33.4909629526052,126.495357025007
속초식당,33.5168104777514,126.52923056113
수정횟집,33.5072114558887,126.530451124182
고집순두부연동본점,33.4893206235564,126.485840687058
제주골목국수,33.4949181671948,126.525578466696
이레막국수,33.2525932861694,126.559063053012
바다의향기,33.5036888514262,126.463603605049
제주분식,33.4924542991042,126.499810237858
헤이피피,33.364931639277,126.199853892993
주식회사솔트바이펩,33.4499888955364,126.918286184573
1박2일,33.2500738980466,126.561214674046
요기,33.2654129721114,126.377541005752
애월빵공장앤카페,33.4482312292221,126.301605206034
제주돔베막국수,33.3041352212042,126.179408222049
제주몽,33.2516022754474,126.425546899833
표선닭해장국,33.3287052784881,126.831381597913
곶자왈밥상,33.2801596897186,126.277164377074
회사가는날,33.4920592184947,126.488064514794
테우,33.5461758212947,126.660338125761
신짜우베트남쌀국수,33.5178634641604,126.57680906313
올레스시초밥전문점,33.4781583401191,126.479633836886
일도차돌,33.5024179953357,126.5462855734
밥의정석,33.2618815908952,126.561713401693
산천초목오리약선요리,33.4961619939901,126.53740290195
촌에따이,33.4947831695366,126.534605199697
청우가든,33.5307363179651,126.625919810416
표선제주닭집삼화점,33.5179039964207,126.588953072737
구삼화로,33.2516672629511,126.509362932616
청년피자제주외도점,33.4885319937734,126.430650417433
올레오사,33.2498322199378,126.563765939814
섭지삼겹막창구이,33.4362858217537,126.919513562018
아란구길,33.4728156372707,126.544781002507
일품왕솥뚜껑,33.507055053665,126.540922262849
엉클프레즐하우스,33.5413534407722,126.674250558447
평담옥,33.4828271527848,126.484575989545
델루버,33.2392397484181,126.386517315883
신화회포차,33.3102637773483,126.333027199918
제주탐라만두,33.393589697173,126.240283558158
우도여행,33.5243929603583,126.952588298907
케이디에셋담앤루,33.2458517188381,126.451468214504
육회본가삼화점,33.5167729193151,126.579462652476
애월연어신서귀포점,33.2524346758161,126.505865581319
바다는김녕,33.5581287565063,126.754947474075
사계주막,33.227832637069,126.305130878153
고평갯드르식당,33.4757994,126.6558425
정성식당,33.346228959994,126.191197655719
어부도,33.4963995014244,126.537072350129
일출손두부,33.4468045507123,126.911410441121
주식회사휘찬,33.3191323745079,126.384730182841
산도롱맨도롱제주공항점,33.5132126011726,126.504407115321
칭다오양꼬치화북점,33.519626125248,126.57311845049
일빈관,33.4099354708689,126.26465833148
제주산방식당외도점,33.4894417170296,126.433823116183
영월갈비,33.5543945900499,126.748232751941
오태식해바라기치킨외도점,33.4865636786009,126.432465990761
몬스터커피제주노형점,33.4845293370512,126.479308031363
우정곱창성산점,33.4514543815183,126.911593507321
분더컴퍼니,33.4944258412486,126.541441848608
남광로127,33.4985548636503,126.547670588042
흥미,33.4900064591197,126.495004256821
민건이네식당,33.4605215846565,126.437271282114
규영이네,33.3104297978909,126.716227046245
춘천명동닭갈비한림점,33.4053521592775,126.256820601069
선지왓숯불갈비,33.2627216705129,126.592061779593
네네치킨노형점,33.4784226661463,126.489668290539
새별상점,33.5312007923008,126.668850579088
백일흑야,33.4502222818717,126.559099603867
오케이식당,33.2503725304437,126.423982678719
슬로우캘리제주점,33.4904847254995,126.544258588998
탐라요정,33.4985090356423,126.528271809437
온기,33.4950241716768,126.546743818727
제주냉동삼겹살제주산,33.2470777794459,126.564497918753
돈이랑성산점,33.4474999881896,126.915979493421
자리왓식당,33.4896476574658,126.434044080972
더건강한빵,33.2518831315191,126.424552452027
여술,33.4986502036052,126.532381015373
탐라국꾼,33.2791827310244,126.718366872479
보목해녀의집,33.2396469170496,126.607924124138
서귀포일터나눔지역자활센터-엄블랑디,33.2523910631996,126.557594126554
주식회사아라온푸드체육회관지점,33.4949916288869,126.517795902545
삼화주구,33.5161484133135,126.581413874287
카오루,33.2310431585964,126.308731323478
송악산엉클스화덕피자,33.2088498256637,126.288308474623
안녀어랭이,33.2806525032935,126.723761014896
신촌밥상,33.5383406020971,126.622321794428
우도흑돼지,33.5174933568237,126.538845714217
시실리,33.2530899509432,126.5030078435
티오,33.4890646882987,126.476522317763
표선1번회센타,33.3259711027046,126.834880218753
스시크레,33.470907324691,126.509747198905
현대제과,33.511920665942,126.526076044462
집밥드시러오세요,33.4937658821321,126.537948839366
알바메,33.4854069585499,126.700049064709
유미해장국,33.3493972888073,126.182503656709
노을안에풍차,33.3368881251976,126.164652284803
월정리에서브런치,33.5561000620525,126.794854307862
석촌,33.2602858892195,126.491802171537
육고깃집노형점,33.4767711155709,126.480098510042
골든에스,33.4841193977404,126.483145389859
김녕회관,33.5558704036559,126.755929803494
참갈비마루,33.5107542565133,126.54174266145
굽네치킨도남점,33.4952773513971,126.52691990115
30년할매닭발모슬포점,33.2224697696379,126.252023320339
썸카페,33.2477248725404,126.564367123707
더벤티커피고성교차로점,33.4471166654874,126.913290977642
무호소반,33.4140774675826,126.261730629371
서도가든,33.5218208316225,126.565973027801
일도해장국,33.4994524502825,126.545270420876
신호등,33.225838190498,126.250090075626
오색밥상,33.2488517108253,126.508211390554
대단한탕후루아라점,33.4742829669621,126.544603885904
어멍1,33.5255438413048,126.588227345505
뚱까트럭,33.3630645795358,126.363952880522
달그락식탁,33.4741294514335,126.548703178194
통일식당,33.5342459844789,126.635487014872
리치망고월정점,33.5562059761529,126.809803876459
자연과사람들밀면제주시점,33.4942607325646,126.517177119671
비에이치씨제주김녕점,33.5548136085613,126.751065564619
이디야커피제주하귀점,33.4846112197529,126.416243772619
가마리식당,33.3113158512018,126.804390416108
봄봄안덕화순점,33.2462896554849,126.331037014081
대오,33.4741402412774,126.656775057375
백년가야밀면,33.2465451659986,126.568034175489
조간대,33.5576101202201,126.753112112769
누구나홀딱반한닭아라점,33.4742697175755,126.549093409028
윤스그릴,33.482063139911,126.41356783462
천외천,33.2519608533434,126.568540111853
부두식당,33.2409379565819,126.564785555269
제이엠티운동센터,33.481238460351,126.475231065776
술빛정원,33.4863186347175,126.48947091809
놈놈놈막창표선점,33.3252540250349,126.833923768735
한양춘향연화점,33.4771493887559,126.48884733928
카페봄봄한경점,33.3530809649793,126.185131364476
생돈구이촌,33.4880038655209,126.479989005856
오라방식당,33.2532177,126.5609945
단백,33.4617813006214,126.931809590559
더후라이팬제주이도점,33.5048708463804,126.525932377551
농부밥상,33.5217376825314,126.583320961675
행진,33.2498332346099,126.565240126859
하도핑크,33.5223095765862,126.883442964845
서귀포7080라이브카페,33.2501064302758,126.558788923055
청년피자화북삼화점,33.5136081590787,126.589110942201
대단한탕후루삼화점,33.5144691814075,126.575448314384
장수촌,33.2457584968869,126.561030860851
청어람,33.5031615937692,126.538827996619
어진식당,33.2423812045493,126.335741388048
모어모어,33.5291469282874,126.875723934623
오늘은막창먹자,33.4984468968913,126.532286117516
그륻,33.4418882333663,126.280119893752
돈피치,33.5046811177077,126.465705983911
또올래,33.4905100078655,126.494475907899
우드스탁,33.5553343707102,126.796622687076
우가네한우짝갈비살,33.4837784798387,126.485327283891
쉘브르,33.3654397549603,126.198942072008
샤커,33.4876726996888,126.431772274216
육회포장,33.2484738418338,126.568111283438
오레노카츠제주협재점,33.3970737133743,126.244419604892
저팔계깡통숯불구이,33.5420729615433,126.666011155128
거로집,33.5150356205216,126.557634718549
버거캐럿,33.5578939202391,126.792448409969
하얼빈양꼬치,33.4870223081553,126.492209267148
깔로,33.449977180526,126.914549747196
난타오천뜨란채점,33.4867188187693,126.473920286237
은미네식당,33.4115241036875,126.902846879903
한국수상레저안전협회제주제주시지부,33.4986042,126.4564616
감각,33.2398769867865,126.505798365563
맛난사계절,33.5362867186208,126.618918210657
탐라는집,33.504706238095,126.465071299141
돌코롬조천점으뜸아이스크림할인점조천점,33.5377817784861,126.639343178429
온차,33.5151565851866,126.527686901084
판포리아,33.3655516826096,126.198389630766
비마이게스트,33.3979765299788,126.2455105223
더컨테이너,33.2726579436857,126.698588689562
명경식당,33.2472635849251,126.336997991258
더화원,33.5012369197994,126.465885018604
별방촌,33.525064929513,126.863471636964
이어돈함덕그첫번째이야기,33.5425072851978,126.667663056566
리앤이라마띠네제주호텔브릿지서귀포점,33.2455931951362,126.566652188682
용두성,33.5144420875448,126.512470307212
화선식당,33.4121327729597,126.269089964575
인생극장동홍점,33.2558708898155,126.575437885444
또래오래한림점,33.4112125685176,126.267431692219
조식,33.4105833954792,126.333158567236
박가랑춘천닭갈비,33.4854855556655,126.430657009422
육월육일,33.5568271026408,126.802051012151
쩐의,33.4989266185944,126.513136152766
돈치킨서부점,33.4282934994739,126.293210795278
로아나,33.2381231678426,126.512017599276
인화곱창,33.506172686219,126.539591538198
몬스터살롱,33.4482777755703,126.307234724391
족풍,33.4738740768855,126.550154934609
가보세엠케이카페,33.2210686828433,126.254009120159
우화,33.2529347105273,126.496067309539
베어파인,33.4746321745023,126.38754724784
세화탐나는도새기,33.5252751778046,126.854134808187
서귀포밀면,33.2676806688446,126.589743696607
성아시,33.3884361507538,126.230381361508
코스튼커피,33.4984037167094,126.528173699456
그초록,33.5563748895924,126.806400947611
제주밀라네사뷔페,33.5099172153189,126.590499672266
알뜨르식당,33.2179807369504,126.271645357124
일상,33.2532704478358,126.39697768558
안동정가네국밥,33.4479557027231,126.43595999169
미드나잇제주,33.3058830576957,126.312239462722
또순이모부페,33.48719494462,126.492997498366
고래날다,33.5561286288115,126.806782274034
유체꽃향기처럼,33.2703836404092,126.278607927018
치킨나라위미점,33.2751496332618,126.666974432656
일출명가,33.2532177,126.5609945
바이올렛,33.4783707152134,126.480763639997
제주산방식당협재점,33.3969482725476,126.244311055179
멘도롱돈까스,33.5554222413952,126.795889362238
봄봄,33.4855463409617,126.460446034145
대평밥상,33.2330541422315,126.36633102194
카페에벤에셀,33.4729573315224,126.485750588206
퀴즈노스영어교육도시점,33.295794043412,126.289665926173
위민도시락,33.4942307658608,126.532187621544
이브3호점,33.4876385688378,126.489800067581
앤모슬포점,33.2226225631329,126.256063384205
제주스럽닭서귀포점올레점,33.2442507955074,126.562670549469
라지마할,33.4885820727618,126.490322962023
만두삼촌,33.2570732396464,126.575392792141
꽃보다소제주연동점,33.4909784084971,126.494769096322
중문대양횟집,33.2526161939946,126.426865759828
표선갈치어장,33.3264968050458,126.845432281787
피제이피자제주1호점,33.4791379983305,126.481200822958
연대옥,33.4929133078735,126.426573942475
안덕식당,33.2594356048409,126.355349801263
소담소담,33.4504406783699,126.915176447119
영성식당,33.2259921771389,126.253702033927
백스비어제주노형점,33.4838879873548,126.482137094214
오늘머회,33.2571555514043,126.573047096417
동수식당,33.2390389733356,126.229628734402
7밀리그램,33.3745191649622,126.283337573433
어덜트밤비노,33.4869562536919,126.531590503732
당근과해녀,33.5329879292454,126.842450523458
리파인제주시청점,33.4987557626906,126.528735469311
바른곱창제주직영점,33.4914484104897,126.544373196995
목민,33.4959543209929,126.525001405935
네네치킨연동점,33.4895517566671,126.495351114709
제주에정든점,33.4977605536872,126.540416585605
닭발굽는청년제주지점,33.2900595331531,126.302364699678
신봉닭발,33.4996038926915,126.528143728394
우연못,33.4666981060184,126.487384163702
제주바룻,33.2524628573881,126.565425952075
소돈정육식당,33.2586589665511,126.5755602649
설촌명가,33.5223478561711,126.58133535835
달쥬,33.2524346758161,126.505865581319
월정해변식당,33.5571599483609,126.794240139826
현우식당,33.5452886467807,126.685489559247
모살왓토종닭,33.3446933970834,126.18139112583
봄봄화북점,33.5239331718653,126.567313851094
삼양떡방앗간,33.5209355103732,126.585597654509
빵하우스,33.2528326406679,126.570180802545
시장,33.5218225717126,126.566366882343
신도시정육식당,33.2508767991674,126.511996409934
잇츠마라탕,33.4882519980232,126.539376500423
풍무맛조림,33.5002652728476,126.524739493615
김녕식당,33.5550561317617,126.749231220232
반올림피자한림점,33.4051039038159,126.255323901488
두찜신제주점,33.4834923584924,126.479015446653
오지하우스제주본점,33.4984926887445,126.527743732476
아파치라이브호프,33.2470796274203,126.558094743887
만경,33.4985712816069,126.531274744239
큐제이주식회사,33.4901557110077,126.536353431232
서림칡냉면,33.5217645021317,126.565644354462
화북빵굽는사람들,33.5196627021738,126.570372275167
컴포즈커피서귀포창천점,33.2612932312244,126.36559242504
도르도르,33.247039504803,126.563199405821
우림가든,33.3257108427491,126.829240837277
듬삭한,33.4001920209885,126.249259423647
모이라순대국밥동홍점,33.2567316219623,126.57119151679
해신,33.3973586090002,126.244714768338
양육점,33.5042125274653,126.541120655707
스시마씸월정점,33.5551767847374,126.79455529645
수다뜰,33.4722319024584,126.610123600895
인생건어물아라점,33.4748199017861,126.549771243575
쿠이,33.5425920781594,126.673166857041
샤오츠,33.4600697275086,126.930266051563
탐라옵데강,33.5129019957931,126.526039050729
솔왓동산식당,33.2576249936462,126.528962825701
오늘와인한잔제주아라점,33.4746426401831,126.549769148016
아라옛통치킨,33.4735474994832,126.542879851437
명동춘천닭갈비5호점,33.4871147644019,126.432375133879
까사디노아,33.2373548168104,126.363107020382
종합강의실,33.4502222818717,126.559099603867
쿠쿤,33.5326681639078,126.837589214575
더벤티제주세화점,33.5229838059892,126.856721592499
총총휴게음식점,33.2431840022375,126.451593463752
타코마씸,33.5550785864878,126.797171077496
사해방흑돼지,33.2514679413365,126.432777060193
진진돈가츠,33.4931616647248,126.53730468696
옥상닭빛,33.5411004521391,126.670162755818
할매숯불구이,33.2556187368154,126.574287081146
태백산3호점,33.4915218714572,126.542703648514
더오젠,33.4843438270698,126.53644325447
오래해장국,33.5040693238146,126.466674123341
성윤국가대표아구찜앤알곤이찜,33.4871147644019,126.432375133879
으뜸아이스크림할인점한림점,33.4145689765754,126.263939727156
커피에반하다서귀포올레시장점,33.2488141911615,126.56417801075
유남회센타,33.5126897206668,126.525722159231
숙이네조개전골앤구이,33.4871147644019,126.432375133879
정통집시청점,33.4993305088136,126.528611934626
영숙이네소숯불구이,33.326112375336,126.833385237448
케이엠지엠제주시청점,33.4979116151492,126.529616977507
버드나무집,33.2217072380011,126.252827475604
도세기집,33.4998777079341,126.54472377296
금보가든,33.4355442254371,126.675656117147
피너트,33.5139700922562,126.957054329025
아리랑밀면,33.2506452210194,126.553201126705
명자,33.4623260719852,126.310481879845
한경식당,33.2572185016878,126.530192063267
더스테이블,33.4761488690221,126.547497108973
에니스케리,33.3954047120351,126.24213110276
레아,33.4909854662378,126.494532111967
WASUP,33.4488929396825,126.304241873148
허커피로스터스,33.4834611747346,126.474023366197
경성숯불양꼬치,33.4879609733051,126.49280796276
장보고민물장어,33.2222860295455,126.255723178255
맑은옹달샘소주방,33.4995238286904,126.522869332
크리스탈허즈주식회사,33.2484431118472,126.332385946753
하버39,33.2423823131282,126.562097652097
제주앨리스연동점,33.4801593861786,126.491022997759
루팡,33.4908051192718,126.491308283658
양반촌,33.5027602508153,126.514278367958
법환포구횟국,33.2373151346867,126.515201472407
빨간집월랑점,33.4901130186723,126.478265949803
졔주,33.2864882358092,126.745164862815
돌아온놀부네,33.4957969651114,126.526195120509
제주돈아고내점,33.4663134042534,126.335136444097
주식회사고토,33.4809823249306,126.380941907964
종달해녀의집,33.4971210100645,126.910861195051
새로나식당,33.2486031837518,126.564222087839
조아조아,33.5086676600019,126.517602643368
원담,33.2402640770886,126.562600701326
이노우에스시,33.4771886434814,126.491420257937
의귀송원,33.3160156401682,126.713082629971
자담치킨호프삼화점,33.5151981148409,126.580342108928
야야,33.5439706637394,126.673493722881
씨오케이홀덤펍,33.4834221522639,126.482961886634
스시렌,33.4829197612892,126.4861645996
비비큐서귀포월드컵점,33.2500254082662,126.509113818477
오아시스,33.2525642841511,126.511376217859
서귀포낭만족발,33.2472035704996,126.562754349492
어반정글그레이밤부,33.5528762283523,126.704392893146
산지나미,33.515303984563,126.529722105291
오후다섯시두가지착각조차도,33.5521259954941,126.648591147217
주식회사제이투에이치컴퍼니,33.4838495134579,126.472268515864
바바라,33.2475370719568,126.562366498842
고고다찌,33.4158035694342,126.263188681713
런던아이,33.4753403120127,126.545967154417
서귀동순대나이트마켓,33.2457210042763,126.569027345142
제주별주식회사,33.4865813146144,126.490511788535
돈풍,33.4867464045945,126.485125520879
록마,33.4838976973788,126.430975549054
제주밀당,33.4941240024185,126.446106351007
비비큐제주협재해수욕장점,33.3929768879297,126.240239448761
진고개,33.2458207814859,126.55307630962
나누리푸드,33.4409958895821,126.434387608852
BabyCafe어놀,33.485841857897,126.478339334048
노가리앤비어서귀포중문점,33.2521431311808,126.422698263806
나드리빵집,33.261431701412,126.555345672361
맥주당,33.5171172716846,126.579977641779
육지것들,33.2503725304437,126.423982678719
정대,33.49833710257,126.529671280792
소인쿡푸드코트,33.2898980693888,126.32396888147
무스비,33.4898541927913,126.537118478336
주식회사제담에프앤비제주호랭이사계점,33.2317241826704,126.297662992914
천하일품,33.4876745164723,126.492714729736
달고기네은갈치,33.4978751101146,126.445633506558
돈블링65,33.4996531182968,126.458825137376
동홍돈,33.2570800229851,126.573843859759
시인의집,33.5359653068944,126.634564579651
바다사랑추억,33.4876199668264,126.390579649686
섶섬한그릇,33.2363876609186,126.597999732345
바베큐타운제주,33.5277693253398,126.630685980036
파스토,33.4371885276893,126.275149056383
랍씨네,33.4352096199783,126.917537283292
쉐어호프,33.2800655566425,126.365727379942
애월바다,33.4625948252326,126.309864575295
어음밥집,33.4020129280469,126.339275133046
큰어멍식당,33.2443658229202,126.522060591039
조천234,33.5363768308597,126.637799667392
맛있는고깃집,33.2577344363561,126.414117289478
끝자락부제,33.4646104732663,126.934849854896
종달아구찜,33.4928520571743,126.900061012169
소곰밭원담,33.2321743827985,126.238192860566
와흘길따라,33.4726006695778,126.658932226671
돼지굽는정원,33.3919230382999,126.241067395884
이런날엔,33.5425899628563,126.830582719349
이디카페,33.2478050006866,126.564462442362
지리산백숙,33.2230357148659,126.256430728078
소희네뚝배기식당,33.4698275073528,126.918756303378
오태식해바라기치킨용담점,33.512675745482,126.510745530678
츠츠허허연동점,33.4877010059276,126.491808263601
창화당서귀포점,33.2529964512628,126.510944782485
성산수산식당,33.4625947776738,126.932550758024
고불락,33.4667436423875,126.33653343081
하루봉,33.3630645795358,126.363952880522
대기야놀자,33.4911603956671,126.59284315793
오리락,33.4859231269052,126.415499116314
네꼬야티하우스,33.4856946327916,126.415626216421
신관,33.2465993538326,126.562795987427
탐라한상,33.2470353452377,126.561428156277
보름달,33.4910278201433,126.492585636776
우도쉼팡구내,33.4935946872089,126.951510927369
레끌레드크리스탈제주,33.2544757117854,126.429849781624
서진돈까스,33.463930104824,126.932464957207
제주설심당동홍점,33.2519228281921,126.568027463299
보타니카170,33.3304357794786,126.815405392513
바위소리,33.4976920521874,126.969006944862
친절한비자씨,33.4915876157897,126.810424759345
당포로나인,33.3257067775395,126.84361472289
김녕해녀촌,33.5570415552988,126.750582982871
달콤왕가탕후루서귀포일호광장점,33.2528591574338,126.561607892756
올레칠돈,33.2439291689496,126.459455166317
제주관덕정분식,33.5126081914512,126.524328141203
남문숯불바베큐치킨조수점,33.33657264035,126.23501245593
김가네해물뚝배기,33.2402021843882,126.562358413649
표선춘하추동,33.3259362403571,126.828775454995
루체,33.499215777998,126.531260939828
주식회사그린팜,33.5077816117418,126.49313255015
금능이모네,33.3981657473798,126.243300134495
꽃담초밥,33.4695438068576,126.50937383773
북경양꼬치,33.4870408467049,126.491189767821
사계휴게소,33.2257567801874,126.299572681937
돈꼬집,33.2532352036111,126.506153928361
고래맥주,33.4875086577706,126.432372779417
현무암닭강정,33.4957173239793,126.43981656208
그리너제주인화점,33.508366214141,126.540186284408
픽미픽미아이스제주노형점,33.4782445670309,126.480759981434
홍초불닭,33.4870723082592,126.490530433322
돌담칼국수세화점,33.5237728622221,126.862182993733
이치류제주점,33.4742580531064,126.547871322477
엉클통김밥노형점,33.4794046312175,126.481790329253
민수네족발보쌈,33.3255487639454,126.834868127127
필,33.2214633207616,126.253257880418
스시코쿠라,33.4910442700712,126.517817782803
제주하늘집,33.4020173470624,126.251044859632
가파도용궁정식,33.1662993538545,126.272818196505
금능반지하,33.3910742919668,126.228770013688
샌드베베,33.2488441705421,126.562752403656
흑돼지잡스,33.4894259502193,126.533659522037
한림별미양곱창한림점,33.413527516626,126.264921981931
피자알볼로중문점,33.2516776458638,126.438096945341
맛동산정우농장,33.4547383622225,126.4298811899
메모루식당,33.2358849893622,126.479548582434
마라도에서,33.1196968287745,126.267115923093
서흘길맥,33.5275207625962,126.588417773237
사계진미일도점,33.5022296145556,126.543379257811
카페테리아구상나무,33.3067006404859,126.585270489249
싱싱푸르츠서귀포점,33.2620432459372,126.560766009659
나우커피제주광양점,33.5014521391907,126.52821010818
영아정식식당돼지고기전문점,33.2719252716523,126.661949112983
공룡마라탕앤꼬치6호점,33.4740515076841,126.54513881639
월정국수,33.5523233630556,126.79182296738
언니식탁,33.4721141977768,126.365407885477
유신횟집,33.5125859689732,126.527071983051
스나쿠타카,33.4837686148438,126.40402984583
사계꽃담집,33.2371490185082,126.308005524882
인판포,33.3655747387983,126.198120588091
제주한치빵우도점,33.5141763133768,126.957125588512
금하순대,33.4412723032488,126.288530248776
주식회사망고레이제주함덕점,33.5423426080187,126.666874047932
르바게트,33.5542167955531,126.790963419618
제쭈,33.266209988449,126.568582754601
한판횟집산방산점,33.2460107678343,126.306135616375
정소암식당,33.2532177,126.5609945
플레이스우도,33.5145502197445,126.957160062395
오늘의아이스크림,33.2487298783863,126.520886946719
카이센동토우코우,33.3058830576957,126.312239462722
돈보리,33.2532177,126.5609945
88포장마차제주시청점,33.4986925198817,126.528606137777
정미당제주,33.5134035229058,126.519967398771
맛있는이가국수집,33.4853932609899,126.429193119482
제주901,33.4529982489154,126.486399973946
추렴,33.531175986254,126.61775772891
바람에스치운다,33.5221459047763,126.89404847177
나무식탁,33.2781176312183,126.191571535352
오마제주,33.2514582937838,126.56040701113
별난술집,33.502398937233,126.547459464047
신마라본색칠성점,33.51425261088,126.526118330586
휘슬피쉬본점,33.5174024584584,126.52750107846
롯데리아제주함덕점,33.542500789037,126.669480309529
혼밥대왕신제주점,33.4855329039407,126.487310462778
주식회사냉삼,33.5029823405977,126.542666635116
꽃길국수,33.516088062129,126.506151195483
이스턴파트,33.5349216570721,126.674628343289
어영해녀촌원,33.5025165980688,126.50445462945
미풍해장국한림점,33.4168670161906,126.268203981572
동해물가든,33.2421656837492,126.467735232197
키로,33.4909751436348,126.494919222441
용기,33.5179953534944,126.523408605026
버거다이브,33.3782401057975,126.216065213534
삼도미쯔모모제주점,33.5087464226744,126.539193361234
제주막창이땡길때,33.4924966575903,126.544780267851
자가제빵선명희피자제주점,33.4928511623456,126.543970504478
덕수궁,33.2502047287708,126.302398587287
우도한끼,33.5130152125778,126.957599206523
자가제빵선명희피자삼양화북점,33.5208744303288,126.58472357595
페리카나성산점,33.4630290464135,126.933316433204
아로제,33.480804693446,126.477383564567
은성횟집,33.5164058652347,126.515118529599
제주섬도야지,33.5063939531864,126.523594574053
제주참더덕과흑돼지,33.3883098805991,126.810205457034
미향해장국사계점,33.2371490185082,126.308005524882
명태골연동점,33.4780948783576,126.488604125575
황금뱃지,33.3233388578995,126.832165955675
모영,33.4489013458955,126.915954157855
프랭크버거제주월랑뜨란채점,33.4886504032297,126.476905716858
해돋이,33.2582683789336,126.552241323903
금능포구횟집,33.3903126194315,126.228652174183
월정리쇠막,33.5590676457908,126.793383254536
녹두네,33.4850727268838,126.484722469408
제주착한닭강정,33.5247989541957,126.853296175744
부두로,33.241511228282,126.564841191707
차롱전복칼국수,33.5185629641687,126.489416558665
청솔밥상,33.4637616387871,126.934055427589
허니,33.2502734397661,126.561985115056
애주가,33.487266358796,126.432029075967
한라정,33.4992841693523,126.501095904721
배롱정원,33.3929847000513,126.241605030473
도리,33.5022647335121,126.466283132254
임풍해장국,33.5555789482339,126.752989853727
보라네,33.959585266549,126.29642058661
복자몸국,33.491754806688,126.526584176758
2에프쿠치나,33.4001920209885,126.249259423647
부자국수,33.4841454569776,126.482411651202
제주하이루탕후루,33.2498980001358,126.564011991459
가장맛있는족발,33.5144791927926,126.57573887532
성읍뚱보식당,33.2532177,126.5609945
정담오메기떡,33.2588663433247,126.512330290097
충세흑돼지정육식당,33.5346770952745,126.633125652131
우도해녀922,33.5128223332684,126.964702176172
세잎클로버,33.2445328602024,126.559435732785
해신짬뽕,33.5132696189228,126.957523739382
신제주배스킨라빈스,33.4886203440419,126.484318616779
가시리은하수가든,33.3606119413579,126.767250157525
스톤,33.2519321462794,126.505240003411
찰리아저씨맛집,33.3012526395785,126.179517676106
돗토리,33.4729179475532,126.548992828781
우도청정식당,33.5139700922562,126.957054329025
장터분식,33.3221153950566,126.841893223857
청춘당찹쌀꽈배기봉개점,33.4961329164039,126.581942385884
쉬어갓,33.3859816319828,126.882253390028
몬스테라자구리점,33.2443785559045,126.56712923369
뒷골목고기집앤탐나는패밀리,33.4968234112151,126.527300076063
주식회사에코타운,33.2130272070571,126.282187411096
다래향,33.5457590880039,126.660726300292
사계미삼,33.2312106514984,126.29419542475
탐나는고깃간,33.2474958905244,126.562193728828
돈마니,33.4163004369338,126.332495721076
오늘도치킨과맥주가좋다,33.4155415145087,126.262330072763
제주스시호타루,33.463363448556,126.310144077689
조오타설렁탕,33.4894624061694,126.480363027739
